Identifiant station,Nom station,Station en fonctionnement,Capacité de la station,Nombre bornettes libres,Nombre total vélos disponibles,Vélos mécaniques disponibles,Vélos électriques disponibles,Borne de paiement disponible,Retour vélib possible,Actualisation de la donnée,Coordonnées géographiques,Nom communes équipées,Code INSEE communes équipées,Densite de la Station,hour,latitude,longitude,arrondissement
16107,Benjamin Godard - Victor Hugo,OUI,32,28,4,1,3,OUI,OUI,2025-03-13 10:01:10+00:00,"48.865983, 2.275725",Paris,75056,0.125,10,48.865983,2.275725,16.0
40001,Hôpital Mondor,OUI,28,10,18,9,9,OUI,OUI,2025-03-13 10:00:21+00:00,"48.798922410229, 2.4537451531298",Créteil,94028,0.6428571428571429,10,48.798922410229,2.4537451531298,Hors Paris
44015,Rouget de L'isle - Watteau,OUI,20,8,12,0,12,OUI,OUI,2025-03-13 09:56:43+00:00,"48.778192750803, 2.3963020229163",Vitry-sur-Seine,94081,0.6,10,48.778192750803,2.3963020229163,Hors Paris
9020,Toudouze - Clauzel,OUI,21,19,2,0,2,OUI,OUI,2025-03-13 09:57:53+00:00,"48.87929591733507, 2.3373600840568547",Paris,75056,0.09523809523809523,10,48.87929591733507,2.3373600840568547,9.0
14014,Jourdan - Stade Charléty,OUI,59,54,5,3,2,OUI,OUI,2025-03-13 09:59:33+00:00,"48.819428333369, 2.3433353751898",Paris,75056,0.0847457627118644,10,48.819428333369,2.3433353751898,14.0
14111,Cassini - Denfert-Rochereau,OUI,23,11,12,4,8,OUI,OUI,2025-03-13 10:00:00+00:00,"48.837525839067, 2.3360354080796",Paris,75056,0.5217391304347826,10,48.837525839067,2.3360354080796,14.0
32017,Basilique,OUI,20,11,9,2,7,OUI,OUI,2025-03-13 09:55:14+00:00,"48.93626891059109, 2.3588666820200914",Saint-Denis,93066,0.45,10,48.93626891059109,2.3588666820200914,Hors Paris
11104,Charonne - Robert et Sonia Delaunay,OUI,20,20,0,0,0,OUI,OUI,2025-03-13 09:53:17+00:00,"48.855907555969, 2.3925706744194",Paris,75056,0.0,10,48.855907555969,2.3925706744194,11.0
6003,Saint-Sulpice,OUI,21,10,11,8,3,OUI,OUI,2025-03-13 10:01:03+00:00,"48.85165383178419, 2.3308077827095985",Paris,75056,0.5238095238095238,10,48.85165383178419,2.3308077827095985,6.0
8026,Messine - Place Du Pérou,OUI,12,0,12,11,1,OUI,OUI,2025-03-13 09:59:42+00:00,"48.875448033960744, 2.315508019010038",Paris,75056,1.0,10,48.875448033960744,2.315508019010038,8.0
7002,Vaneau - Sèvres,OUI,35,15,20,15,5,OUI,OUI,2025-03-13 10:00:06+00:00,"48.848563233059, 2.3204218259346",Paris,75056,0.5714285714285714,10,48.848563233059,2.3204218259346,7.0
13007,Le Brun - Gobelins,OUI,47,31,16,13,3,OUI,OUI,2025-03-13 10:00:05+00:00,"48.835092787824, 2.3534681351338",Paris,75056,0.3404255319148936,10,48.835092787824,2.3534681351338,13.0
5110,Lacépède - Monge,OUI,23,21,2,0,2,OUI,OUI,2025-03-13 10:01:22+00:00,"48.84389286531899, 2.3519663885235786",Paris,75056,0.08695652173913043,10,48.84389286531899,2.3519663885235786,5.0
42016,Pierre et Marie Curie - Maurice Thorez,OUI,26,23,3,1,2,OUI,OUI,2025-03-13 09:56:47+00:00,"48.81580226360801, 2.376804985105991",Ivry-sur-Seine,94041,0.11538461538461539,10,48.81580226360801,2.376804985105991,Hors Paris
6108,Saint-Romain - Cherche-Midi,OUI,16,10,6,4,2,OUI,OUI,2025-03-13 09:59:34+00:00,"48.84708159081946, 2.321374788880348",Paris,75056,0.375,10,48.84708159081946,2.321374788880348,6.0
21010,Silly - Galliéni,OUI,25,17,8,5,3,OUI,OUI,2025-03-13 10:00:27+00:00,"48.835583838706, 2.2325500845909",Boulogne-Billancourt,92012,0.32,10,48.835583838706,2.2325500845909,Hors Paris
33006,André Karman - République,OUI,30,22,8,4,4,OUI,OUI,2025-03-13 10:00:33+00:00,"48.91039875761846, 2.3851355910301213",Aubervilliers,93001,0.26666666666666666,10,48.91039875761846,2.3851355910301213,Hors Paris
32304,Charcot - Benfleet,OUI,28,27,1,0,1,NON,NON,2025-03-13 09:51:45+00:00,"48.878370277021, 2.440523876268",Romainville,93063,0.03571428571428571,10,48.878370277021,2.440523876268,Hors Paris
40011,Bas du Mont-Mesly,OUI,26,18,8,5,3,OUI,OUI,2025-03-13 10:01:22+00:00,"48.779035118572, 2.4609763908985",Créteil,94028,0.3076923076923077,10,48.779035118572,2.4609763908985,Hors Paris
7003,Square Boucicaut,OUI,59,21,38,18,20,OUI,OUI,2025-03-13 09:59:36+00:00,"48.851296433665276, 2.325061820447445",Paris,75056,0.6440677966101694,10,48.851296433665276,2.325061820447445,7.0
25006,Place Nelson Mandela,OUI,22,20,2,2,0,OUI,OUI,2025-03-13 09:59:24+00:00,"48.862453313908, 2.1961666225454",Rueil-Malmaison,92063,0.09090909090909091,10,48.862453313908,2.1961666225454,Hors Paris
17041,Guersant - Gouvion-Saint-Cyr,OUI,33,24,9,5,4,OUI,OUI,2025-03-13 09:58:09+00:00,"48.88287775178599, 2.287667370814871",Paris,75056,0.2727272727272727,10,48.88287775178599,2.287667370814871,17.0
30002,Jean Rostand - Paul Vaillant Couturier,OUI,39,27,12,7,5,OUI,OUI,2025-03-13 10:01:04+00:00,"48.908168131015, 2.4530601033354",Bobigny,93008,0.3076923076923077,10,48.908168131015,2.4530601033354,Hors Paris
11025,Froment - Bréguet,OUI,43,24,19,8,11,OUI,OUI,2025-03-13 10:00:10+00:00,"48.8570414504784, 2.37289470306807",Paris,75056,0.4418604651162791,10,48.8570414504784,2.37289470306807,11.0
5016,Thouin - Cardinal Lemoine,OUI,16,4,12,0,12,OUI,OUI,2025-03-13 10:01:19+00:00,"48.84504716661511, 2.3494647851273465",Paris,75056,0.75,10,48.84504716661511,2.3494647851273465,5.0
15047,Morillons - Dantzig,OUI,51,51,0,0,0,OUI,OUI,2025-03-13 09:53:05+00:00,"48.83310149953933, 2.299380004405976",Paris,75056,0.0,10,48.83310149953933,2.299380004405976,15.0
17026,Jouffroy d'Abbans - Wagram,OUI,39,20,19,11,8,OUI,OUI,2025-03-13 09:57:32+00:00,"48.881973298352, 2.301132157445",Paris,75056,0.48717948717948717,10,48.881973298352,2.301132157445,17.0
15202,Bracion - Périphérique,OUI,30,21,9,4,5,OUI,OUI,2025-03-13 10:01:06+00:00,"48.826103771275, 2.3004549373748",Paris,75056,0.3,10,48.826103771275,2.3004549373748,15.0
6021,Beaux-Arts - Bonaparte,OUI,20,2,18,11,7,OUI,OUI,2025-03-13 10:00:06+00:00,"48.856451985396, 2.3348518833518",Paris,75056,0.9,10,48.856451985396,2.3348518833518,6.0
2022,Saint-Fiacre - Poissonière,OUI,33,4,29,16,13,OUI,OUI,2025-03-13 10:00:56+00:00,"48.870828911558, 2.3459213599563",Paris,75056,0.8787878787878788,10,48.870828911558,2.3459213599563,2.0
12109,Mairie du 12ème,OUI,29,27,2,2,0,OUI,OUI,2025-03-13 10:00:01+00:00,"48.840855311763, 2.3875549435616",Paris,75056,0.06896551724137931,10,48.840855311763,2.3875549435616,12.0
20143,Ramponeau - Belleville,OUI,44,42,2,2,0,OUI,OUI,2025-03-13 10:01:21+00:00,"48.871031137596, 2.379056852114",Paris,75056,0.045454545454545456,10,48.871031137596,2.379056852114,20.0
8050,Boétie - Ponthieu,OUI,43,2,41,11,30,OUI,OUI,2025-03-13 10:01:00+00:00,"48.871417284355, 2.3076787590981",Paris,75056,0.9534883720930233,10,48.871417284355,2.3076787590981,8.0
15068,Général Martial Valin - Pont du Garigliano,OUI,14,1,13,5,8,OUI,OUI,2025-03-13 09:54:25+00:00,"48.83823094269141, 2.270506024360657",Paris,75056,0.9285714285714286,10,48.83823094269141,2.270506024360657,15.0
13101,Croulebarde - Corvisart,OUI,33,25,8,6,2,OUI,OUI,2025-03-13 10:01:12+00:00,"48.830981659316855, 2.3481646925210953",Paris,75056,0.24242424242424243,10,48.830981659316855,2.3481646925210953,13.0
19027,Serrurier,OUI,18,18,0,0,0,OUI,OUI,2025-03-13 09:57:33+00:00,"48.880493403246, 2.398064173758",Paris,75056,0.0,10,48.880493403246,2.398064173758,19.0
14108,Le Brix et Mesmin - Jourdan,OUI,19,18,1,1,0,OUI,OUI,2025-03-13 09:58:36+00:00,"48.82234096593411, 2.327861653302471",Paris,75056,0.05263157894736842,10,48.82234096593411,2.327861653302471,14.0
44017,Jules Guesde - Pont du Port à l'Anglais,OUI,26,1,25,24,1,OUI,OUI,2025-03-13 09:59:16+00:00,"48.79628807093802, 2.417212128639221",Vitry-sur-Seine,94081,0.9615384615384616,10,48.79628807093802,2.417212128639221,Hors Paris
31024,Romainville - Vaillant-Couturier,OUI,36,35,1,0,1,OUI,OUI,2025-03-13 10:00:03+00:00,"48.86785, 2.446748",Montreuil,93048,0.027777777777777776,10,48.86785,2.446748,Hors Paris
9008,Tour d'Auvergne - Rodier,OUI,16,15,1,0,1,OUI,OUI,2025-03-13 10:00:55+00:00,"48.879161, 2.343698",Paris,75056,0.0625,10,48.879161,2.343698,9.0
17044,Porte de Saint-Ouen - Bessières,OUI,42,34,8,3,5,OUI,OUI,2025-03-13 09:59:08+00:00,"48.89792240854517, 2.32851451022192",Paris,75056,0.19047619047619047,10,48.89792240854517,2.32851451022192,17.0
14013,Liard - Amiral Mouchez,OUI,26,23,3,1,2,OUI,OUI,2025-03-13 09:58:10+00:00,"48.8214169, 2.342167",Paris,75056,0.11538461538461539,10,48.8214169,2.342167,14.0
19033,Cambrai - Benjamin Constant,OUI,40,33,7,2,5,OUI,OUI,2025-03-13 09:59:14+00:00,"48.89594736851349, 2.381133802246315",Paris,75056,0.175,10,48.89594736851349,2.381133802246315,19.0
15112,Vigée-Lebrun - Anselme Payen,OUI,23,20,3,3,0,OUI,OUI,2025-03-13 10:00:24+00:00,"48.838683941628375, 2.3110422492027287",Paris,75056,0.13043478260869565,10,48.838683941628375,2.3110422492027287,15.0
17025,Chazelles - Courcelles,OUI,33,14,19,3,16,OUI,OUI,2025-03-13 10:00:43+00:00,"48.879406604954, 2.3034455627202988",Paris,75056,0.5757575757575758,10,48.879406604954,2.3034455627202988,17.0
9002,Abbeville - Faubourg Poissonnière,OUI,13,11,2,2,0,OUI,OUI,2025-03-13 09:55:53+00:00,"48.879223, 2.349147",Paris,75056,0.15384615384615385,10,48.879223,2.349147,9.0
21326,Moulin de Pierre - Abbé Grégoire,OUI,20,18,2,0,2,OUI,OUI,2025-03-13 09:55:47+00:00,"48.822036188382, 2.2754641655975",Issy-les-Moulineaux,92040,0.1,10,48.822036188382,2.2754641655975,Hors Paris
16110,Octave Feuillet - Albéric Magnard,OUI,21,2,19,3,16,OUI,OUI,2025-03-13 09:59:32+00:00,"48.86106902949534, 2.2730283066630363",Paris,75056,0.9047619047619048,10,48.86106902949534,2.2730283066630363,16.0
43002,Lagny - Victor Basch,OUI,24,17,7,5,2,OUI,OUI,2025-03-13 09:59:13+00:00,"48.84884147189881, 2.426325418925233",Vincennes,94080,0.2916666666666667,10,48.84884147189881,2.426325418925233,Hors Paris
43009,Place Jean-Spire-Lemaître,OUI,48,48,0,0,0,OUI,OUI,2025-03-13 09:52:39+00:00,"48.8468428626593, 2.452062070369721",Vincennes,94080,0.0,10,48.8468428626593,2.452062070369721,Hors Paris
16138,Saint-Cloud - Hippodrome,OUI,30,22,8,3,5,OUI,OUI,2025-03-13 09:55:29+00:00,"48.85772148887421, 2.2549109905958176",Paris,75056,0.26666666666666666,10,48.85772148887421,2.2549109905958176,16.0
17032,Jean Oestreicher - Porte de Champerret,OUI,21,4,17,9,8,OUI,OUI,2025-03-13 10:01:12+00:00,"48.88655580065981, 2.288640439510346",Paris,75056,0.8095238095238095,10,48.88655580065981,2.288640439510346,17.0
21216,Louis Lejeune - Barbès,OUI,24,23,1,0,1,OUI,OUI,2025-03-13 09:51:48+00:00,"48.81807418981508, 2.3267009854316716",Montrouge,92049,0.041666666666666664,10,48.81807418981508,2.3267009854316716,Hors Paris
10115,Granges aux Belles,OUI,27,25,2,2,0,OUI,OUI,2025-03-13 10:00:45+00:00,"48.8761373390584, 2.3680844979417",Paris,75056,0.07407407407407407,10,48.8761373390584,2.3680844979417,10.0
22207,Rond-point du Dr Albert Schweitzer,OUI,21,16,5,3,2,OUI,OUI,2025-03-13 09:57:00+00:00,"48.78980918988166, 2.3143940046429634",Bagneux,92007,0.23809523809523808,10,48.78980918988166,2.3143940046429634,Hors Paris
12031,Gabriel Lamé,OUI,34,26,8,6,2,OUI,OUI,2025-03-13 10:00:35+00:00,"48.8351212784276, 2.385534569621086",Paris,75056,0.23529411764705882,10,48.8351212784276,2.385534569621086,12.0
92002,Théâtre des Amandiers - Palais des sports,OUI,23,5,18,8,10,OUI,OUI,2025-03-13 10:00:18+00:00,"48.892648526839, 2.2136941552162",Nanterre,92050,0.782608695652174,10,48.892648526839,2.2136941552162,Hors Paris
1001,Quai de l'Horloge - Pont Neuf,OUI,16,1,15,12,3,OUI,OUI,2025-03-13 10:01:14+00:00,"48.857058739111, 2.3417982839439",Paris,75056,0.9375,10,48.857058739111,2.3417982839439,1.0
31028,Raspail Barbès,OUI,28,26,2,1,1,OUI,OUI,2025-03-13 10:01:28+00:00,"48.8529945, 2.4247387",Montreuil,93048,0.07142857142857142,10,48.8529945,2.4247387,Hors Paris
5022,Boulangers - Cardinal Lemoine,OUI,18,4,14,9,5,OUI,OUI,2025-03-13 09:59:23+00:00,"48.8462904, 2.3521495",Paris,75056,0.7777777777777778,10,48.8462904,2.3521495,5.0
17048,De Toqueville - Terrasse,OUI,30,27,3,3,0,OUI,OUI,2025-03-13 09:59:29+00:00,"48.882428, 2.314002",Paris,75056,0.1,10,48.882428,2.314002,17.0
17040,Pereire - Ternes,OUI,48,46,2,1,1,OUI,OUI,2025-03-13 09:56:49+00:00,"48.87973954830735, 2.288012132048607",Paris,75056,0.041666666666666664,10,48.87973954830735,2.288012132048607,17.0
9038,Douai - Bruxelles,OUI,26,21,5,0,5,OUI,OUI,2025-03-13 09:59:04+00:00,"48.88320784122797, 2.3308449949028507",Paris,75056,0.19230769230769232,10,48.88320784122797,2.3308449949028507,9.0
16118,Michel-Ange - Parent de Rosan,OUI,24,19,5,1,4,OUI,OUI,2025-03-13 10:01:00+00:00,"48.840579923690115, 2.2584119439125065",Paris,75056,0.20833333333333334,10,48.840579923690115,2.2584119439125065,16.0
17008,Porte Pouchet-Bessières,OUI,23,12,11,9,2,OUI,OUI,2025-03-13 09:59:08+00:00,"48.8978765, 2.3230632",Paris,75056,0.4782608695652174,10,48.8978765,2.3230632,17.0
2017,Caire - Dussoubs,OUI,39,3,36,27,9,OUI,OUI,2025-03-13 10:01:08+00:00,"48.86785342111862, 2.349364310503006",Paris,75056,0.9230769230769231,10,48.86785342111862,2.349364310503006,2.0
7018,Ségur - d'Estrées,OUI,19,1,18,8,10,OUI,OUI,2025-03-13 10:00:35+00:00,"48.851419978983, 2.3097044974566",Paris,75056,0.9473684210526315,10,48.851419978983,2.3097044974566,7.0
8103,Artois - Berri,OUI,22,2,20,9,11,OUI,OUI,2025-03-13 10:00:44+00:00,"48.87393521240818, 2.3064258322119713",Paris,75056,0.9090909090909091,10,48.87393521240818,2.3064258322119713,8.0
21323,Charlot - Stade Gabriel Voisin,OUI,31,1,30,26,4,OUI,OUI,2025-03-13 10:01:26+00:00,"48.827228120536, 2.268122527474",Issy-les-Moulineaux,92040,0.967741935483871,10,48.827228120536,2.268122527474,Hors Paris
8048,Marceau - Chaillot,OUI,19,5,14,4,10,OUI,OUI,2025-03-13 09:59:34+00:00,"48.868834023334, 2.2986030816809",Paris,75056,0.7368421052631579,10,48.868834023334,2.2986030816809,16.0
8053,Place Georges Guillaumin,OUI,27,11,16,6,10,OUI,OUI,2025-03-13 09:58:53+00:00,"48.874750203957, 2.301771435326",Paris,75056,0.5925925925925926,10,48.874750203957,2.301771435326,8.0
13118,Regnault - Patay,OUI,62,10,52,41,11,OUI,OUI,2025-03-13 09:59:12+00:00,"48.82435782216384, 2.377065159380436",Paris,75056,0.8387096774193549,10,48.82435782216384,2.377065159380436,13.0
9014,Faubourg Montmartre - La Fayette,OUI,32,1,31,17,14,OUI,OUI,2025-03-13 10:00:33+00:00,"48.875254549053, 2.3408536612988",Paris,75056,0.96875,10,48.875254549053,2.3408536612988,9.0
13030,Italie - Tolbiac,OUI,21,19,2,2,0,OUI,OUI,2025-03-13 10:00:22+00:00,"48.82557229464416, 2.3576171323657036",Paris,75056,0.09523809523809523,10,48.82557229464416,2.3576171323657036,13.0
31706,Château - République,OUI,25,19,6,2,4,OUI,OUI,2025-03-13 10:01:13+00:00,"48.862923800596, 2.4155035614967",Bagnolet,93006,0.24,10,48.862923800596,2.4155035614967,Hors Paris
18111,Félix Ziem - Armand Gauthier,OUI,21,21,0,0,0,OUI,OUI,2025-03-13 09:56:54+00:00,"48.88949630486821, 2.333393658804396",Paris,75056,0.0,10,48.88949630486821,2.333393658804396,18.0
19015,Thionville - Ourcq,OUI,22,22,0,0,0,OUI,OUI,2025-03-13 09:56:34+00:00,"48.88917613743794, 2.3833653330802917",Paris,75056,0.0,10,48.88917613743794,2.3833653330802917,19.0
48003,Youri Gagarine - Karl Marx,OUI,22,18,4,2,2,OUI,OUI,2025-03-13 09:55:29+00:00,"48.78448485079149, 2.35908430069685",Villejuif,94076,0.18181818181818182,10,48.78448485079149,2.35908430069685,Hors Paris
17004,Legendre - Clichy,OUI,39,35,4,1,3,OUI,OUI,2025-03-13 09:58:56+00:00,"48.88896161855884, 2.322528975094376",Paris,75056,0.10256410256410256,10,48.88896161855884,2.322528975094376,17.0
9001,Bellefond - Poissonnière,OUI,14,11,3,2,1,OUI,OUI,2025-03-13 09:59:32+00:00,"48.87759897050706, 2.348463758826256",Paris,75056,0.21428571428571427,10,48.87759897050706,2.348463758826256,9.0
19003,Quai de la Seine,OUI,24,23,1,0,1,OUI,OUI,2025-03-13 09:59:24+00:00,"48.884492238407525, 2.3703941702842717",Paris,75056,0.041666666666666664,10,48.884492238407525,2.3703941702842717,19.0
8016,Square Louis XVI,OUI,29,2,27,15,12,OUI,OUI,2025-03-13 09:59:02+00:00,"48.87320440102894, 2.323658830743138",Paris,75056,0.9310344827586207,10,48.87320440102894,2.323658830743138,8.0
5020,Institut du Monde Arabe - Saint-Germain,OUI,38,3,35,32,3,OUI,OUI,2025-03-13 10:00:41+00:00,"48.849063299501, 2.3558086529374",Paris,75056,0.9210526315789473,10,48.849063299501,2.3558086529374,5.0
10029,Dunkerque - Rocroy,OUI,24,23,1,0,1,OUI,OUI,2025-03-13 09:57:26+00:00,"48.880726, 2.351464",Paris,75056,0.041666666666666664,10,48.880726,2.351464,10.0
92007,Pesaro - Préfecture,OUI,21,12,9,2,7,OUI,OUI,2025-03-13 10:01:26+00:00,"48.89577046284005, 2.223908342421055",Nanterre,92050,0.42857142857142855,10,48.89577046284005,2.223908342421055,Hors Paris
10161,Gare de l'Est - Faubourg-Saint-Martin,OUI,32,25,7,2,5,OUI,OUI,2025-03-13 09:56:52+00:00,"48.875642647477, 2.3594588041306",Paris,75056,0.21875,10,48.875642647477,2.3594588041306,10.0
26002,Redoute - Les Courtilles,OUI,37,14,23,16,7,OUI,OUI,2025-03-13 10:01:10+00:00,"48.929867194519, 2.2836696356535",Asnières-sur-Seine,92004,0.6216216216216216,10,48.929867194519,2.2836696356535,Hors Paris
41303,Gare de Nogent-le-Perreux,OUI,30,18,12,10,2,OUI,OUI,2025-03-13 09:58:56+00:00,"48.83842553348809, 2.493693307042122",Nogent-sur-Marne,94052,0.4,10,48.83842553348809,2.493693307042122,Hors Paris
11023,Saint-Maur - Roquette,OUI,46,43,3,0,3,OUI,OUI,2025-03-13 10:00:21+00:00,"48.858688774062955, 2.383553994571467",Paris,75056,0.06521739130434782,10,48.858688774062955,2.383553994571467,11.0
21328,Verger - Colonel Guichard,OUI,29,27,2,0,2,OUI,OUI,2025-03-13 10:00:59+00:00,"48.816376985087, 2.2670380088932",Issy-les-Moulineaux,92040,0.06896551724137931,10,48.816376985087,2.2670380088932,Hors Paris
45003,11 Novembre 1918 - 8 Mai 1945,OUI,36,13,23,14,9,OUI,OUI,2025-03-13 09:55:31+00:00,"48.80889533774377, 2.5382421165704727",Champigny-sur-Marne,94017,0.6388888888888888,10,48.80889533774377,2.5382421165704727,Hors Paris
13104,Gare d'Austerlitz - Quai Saint-Bernard,OUI,26,4,22,16,6,OUI,OUI,2025-03-13 10:00:15+00:00,"48.84369030864, 2.3657163977623",Paris,75056,0.8461538461538461,10,48.84369030864,2.3657163977623,13.0
11047,Amelot - Saint-Sébastien,OUI,29,13,16,10,6,OUI,OUI,2025-03-13 10:01:25+00:00,"48.861142162761, 2.3677996181077",Paris,75056,0.5517241379310345,10,48.861142162761,2.3677996181077,11.0
8009,Gare Saint-Lazare - Isly,OUI,25,11,14,9,5,OUI,OUI,2025-03-13 10:01:03+00:00,"48.874777677621296, 2.326515804784655",Paris,75056,0.56,10,48.874777677621296,2.326515804784655,8.0
5032,Panthéon - Valette,OUI,39,0,39,6,33,OUI,OUI,2025-03-13 09:58:56+00:00,"48.847020571652, 2.3464982619671",Paris,75056,1.0,10,48.847020571652,2.3464982619671,5.0
31103,Gare Rosny-Bois-Perrier,OUI,32,14,18,0,18,OUI,OUI,2025-03-13 09:59:26+00:00,"48.88115023337061, 2.480436824262142",Rosny-sous-Bois,93064,0.5625,10,48.88115023337061,2.480436824262142,Hors Paris
20042,Pyrénées - Emmery,OUI,39,37,2,0,2,OUI,OUI,2025-03-13 09:56:02+00:00,"48.872010281270974, 2.392039597034455",Paris,75056,0.05128205128205128,10,48.872010281270974,2.392039597034455,20.0
18203,Lamarck - Saint-Ouen,OUI,40,40,0,0,0,NON,NON,2025-03-13 09:57:16+00:00,"48.891334555236, 2.3272445342326",Paris,75056,0.0,10,48.891334555236,2.3272445342326,18.0
15067,Desaix - Edgar Faure,OUI,11,3,8,5,3,OUI,OUI,2025-03-13 09:57:55+00:00,"48.852804604940296, 2.293077029857222",Paris,75056,0.7272727272727273,10,48.852804604940296,2.293077029857222,15.0
5005,Gay Lussac - Saint-Jacques,OUI,24,1,23,6,17,OUI,OUI,2025-03-13 09:54:05+00:00,"48.844730256132, 2.3419239448664",Paris,75056,0.9583333333333334,10,48.844730256132,2.3419239448664,5.0
17030,Pereire - Rennequin,OUI,22,21,1,0,1,OUI,OUI,2025-03-13 09:57:42+00:00,"48.88364782887555, 2.2952447086572647",Paris,75056,0.045454545454545456,10,48.88364782887555,2.2952447086572647,17.0
9106,Boudreau - Auber,OUI,27,7,20,7,13,OUI,OUI,2025-03-13 09:59:26+00:00,"48.87219, 2.329423",Paris,75056,0.7407407407407407,10,48.87219,2.329423,9.0
6006,Notre-Dame-des-Champs - Stanislas,OUI,19,1,18,12,6,OUI,OUI,2025-03-13 09:57:20+00:00,"48.84479928858768, 2.329337755887181",Paris,75056,0.9473684210526315,10,48.84479928858768,2.329337755887181,6.0
19105,Ambroise Rendu - Porte Brunet,OUI,17,14,3,2,1,OUI,OUI,2025-03-13 10:00:33+00:00,"48.883667, 2.395733",Paris,75056,0.17647058823529413,10,48.883667,2.395733,19.0
11027,Saint-Ambroise - Parmentier,OUI,34,18,16,11,5,OUI,OUI,2025-03-13 10:00:38+00:00,"48.862147844548, 2.3772348091006",Paris,75056,0.47058823529411764,10,48.862147844548,2.3772348091006,11.0
22409,Henri Barbusse - Stalingrad,OUI,15,15,0,0,0,OUI,OUI,2025-03-13 09:54:13+00:00,"48.814183748660554, 2.2872862592339516",Malakoff,92046,0.0,10,48.814183748660554,2.2872862592339516,Hors Paris
8010,Liège - Moscou,OUI,15,13,2,0,2,OUI,OUI,2025-03-13 10:00:14+00:00,"48.8795431, 2.3264628",Paris,75056,0.13333333333333333,10,48.8795431,2.3264628,8.0
9022,Rossini - Laffitte,OUI,33,2,31,18,13,OUI,OUI,2025-03-13 10:00:49+00:00,"48.87334627510507, 2.337980867701675",Paris,75056,0.9393939393939394,10,48.87334627510507,2.337980867701675,9.0
41302,Charles de Gaulle - Beauté,OUI,48,48,0,0,0,OUI,OUI,2025-03-13 09:59:31+00:00,"48.83649602312711, 2.479562651149885",Nogent-sur-Marne,94052,0.0,10,48.83649602312711,2.479562651149885,Hors Paris
26003,Argenteuil - Voltaire,OUI,16,14,2,1,1,OUI,OUI,2025-03-13 09:57:26+00:00,"48.91864865955558, 2.2814112156629562",Asnières-sur-Seine,92004,0.125,10,48.91864865955558,2.2814112156629562,Hors Paris
14020,Cimetière de Montrouge,OUI,58,54,4,1,3,OUI,OUI,2025-03-13 09:54:18+00:00,"48.821466904768, 2.3215785772007",Paris,75056,0.06896551724137931,10,48.821466904768,2.3215785772007,14.0
12151,Gare de Lyon - Place Louis Armand,OUI,58,4,54,44,10,OUI,OUI,2025-03-13 10:01:26+00:00,"48.845515089794, 2.3726498446286",Paris,75056,0.9310344827586207,10,48.845515089794,2.3726498446286,12.0
21212,Marne - Germain Dardan,OUI,21,18,3,2,1,OUI,OUI,2025-03-13 09:59:40+00:00,"48.81217465201, 2.3035024699104",Montrouge,92049,0.14285714285714285,10,48.81217465201,2.3035024699104,Hors Paris
16026,Ranelagh - Mozart,OUI,7,5,2,1,1,OUI,OUI,2025-03-13 10:00:06+00:00,"48.8554439, 2.2704418",Paris,75056,0.2857142857142857,10,48.8554439,2.2704418,16.0
44006,Concorde - Stalingrad,OUI,35,31,4,1,3,OUI,OUI,2025-03-13 09:56:52+00:00,"48.7985844, 2.3821302",Vitry-sur-Seine,94081,0.11428571428571428,10,48.7985844,2.3821302,Hors Paris
9028,Moncey - Blanche,OUI,17,10,7,5,2,OUI,OUI,2025-03-13 09:58:34+00:00,"48.88006587474148, 2.3310810327529907",Paris,75056,0.4117647058823529,10,48.88006587474148,2.3310810327529907,9.0
19120,Carducci - Place Hannah Arendt,OUI,27,26,1,0,1,OUI,OUI,2025-03-13 10:00:55+00:00,"48.877436681515796, 2.3860743641853337",Paris,75056,0.037037037037037035,10,48.877436681515796,2.3860743641853337,19.0
10107,Gare du Nord - Hôpital Lariboisière,OUI,49,48,1,0,1,OUI,OUI,2025-03-13 09:58:29+00:00,"48.881949, 2.352339",Paris,75056,0.02040816326530612,10,48.881949,2.352339,10.0
11113,Richard Lenoir - Republique,OUI,57,18,39,37,2,OUI,OUI,2025-03-13 10:00:59+00:00,"48.8667175, 2.3692541",Paris,75056,0.6842105263157895,10,48.8667175,2.3692541,11.0
17043,Belidor - Gouvion-Saint-Cyr,OUI,38,26,12,11,1,OUI,OUI,2025-03-13 10:01:17+00:00,"48.88022154052015, 2.2854680567979813",Paris,75056,0.3157894736842105,10,48.88022154052015,2.2854680567979813,17.0
14003,Schoelcher - Raspail,OUI,48,43,5,1,4,OUI,OUI,2025-03-13 09:56:05+00:00,"48.83681733526843, 2.3312794080411474",Paris,75056,0.10416666666666667,10,48.83681733526843,2.3312794080411474,14.0
19026,Place de Rhin et Danube,OUI,14,14,0,0,0,OUI,OUI,2025-03-13 09:53:32+00:00,"48.88192765861766, 2.392586767673493",Paris,75056,0.0,10,48.88192765861766,2.392586767673493,19.0
43008,Fontenay - Libération,OUI,25,20,5,0,5,OUI,OUI,2025-03-13 09:59:42+00:00,"48.847803063647, 2.4451419711113",Vincennes,94080,0.2,10,48.847803063647,2.4451419711113,Hors Paris
16039,Exelmans - Versailles,OUI,47,15,32,23,9,OUI,OUI,2025-03-13 09:59:52+00:00,"48.84097491091973, 2.264390252530575",Paris,75056,0.6808510638297872,10,48.84097491091973,2.264390252530575,16.0
19101,Square Simon Bolivar,OUI,23,20,3,1,2,OUI,OUI,2025-03-13 10:01:10+00:00,"48.875089888322, 2.3826304078102",Paris,75056,0.13043478260869565,10,48.875089888322,2.3826304078102,19.0
11002,Roquette - Thiéré,OUI,22,1,21,16,5,OUI,OUI,2025-03-13 10:01:27+00:00,"48.85507930579506, 2.3733686318721463",Paris,75056,0.9545454545454546,10,48.85507930579506,2.3733686318721463,11.0
14138,Porte de Vanves,OUI,29,25,4,1,3,OUI,OUI,2025-03-13 09:55:31+00:00,"48.828012849445, 2.3056878894567",Paris,75056,0.13793103448275862,10,48.828012849445,2.3056878894567,14.0
12111,Claude Decaen - Cannebière,OUI,27,25,2,0,2,OUI,OUI,2025-03-13 09:59:45+00:00,"48.83761417037952, 2.397253782195704",Paris,75056,0.07407407407407407,10,48.83761417037952,2.397253782195704,12.0
46003,Conservatoire de Musique,OUI,24,2,22,19,3,OUI,OUI,2025-03-13 10:01:27+00:00,"48.77093586667601, 2.4034014344215398",Choisy-le-Roi,94022,0.9166666666666666,10,48.77093586667601,2.4034014344215398,Hors Paris
8034,Berri - Haussmann,OUI,34,3,31,11,20,OUI,OUI,2025-03-13 09:59:24+00:00,"48.874746047357135, 2.3082953318953514",Paris,75056,0.9117647058823529,10,48.874746047357135,2.3082953318953514,8.0
41209,Cimetière de Fontenay-sous-Bois,OUI,15,15,0,0,0,OUI,OUI,2025-03-13 09:59:14+00:00,"48.84706173362218, 2.4787822365760808",Fontenay-sous-Bois,94033,0.0,10,48.84706173362218,2.4787822365760808,Hors Paris
19043,Delphine Seyrig - Général Leclerc,OUI,51,45,6,2,4,OUI,OUI,2025-03-13 09:57:52+00:00,"48.893923963057865, 2.39790290594101",Pantin,93055,0.11764705882352941,10,48.893923963057865,2.39790290594101,19.0
13001,Port-Royal - Hôpital du Val-de-Grâce,OUI,17,13,4,0,4,OUI,OUI,2025-03-13 10:00:10+00:00,"48.837668272811, 2.3448138346607",Paris,75056,0.23529411764705882,10,48.837668272811,2.3448138346607,13.0
18107,Chartres - La Charbonnière,OUI,34,34,0,0,0,OUI,OUI,2025-03-13 09:57:34+00:00,"48.8847601, 2.3534657",Paris,75056,0.0,10,48.8847601,2.3534657,18.0
15054,Lecourbe - Jean Maridor,OUI,18,15,3,2,1,OUI,OUI,2025-03-13 10:01:15+00:00,"48.83796366147599, 2.2877392172813416",Paris,75056,0.16666666666666666,10,48.83796366147599,2.2877392172813416,15.0
12128,Pyramide - Ecole du Breuil,OUI,33,27,6,2,4,OUI,OUI,2025-03-13 09:58:24+00:00,"48.82237977153955, 2.4586871266365056",Paris,75056,0.18181818181818182,10,48.82237977153955,2.4586871266365056,12.0
15106,Grenelle - Violet,OUI,34,18,16,14,2,OUI,OUI,2025-03-13 09:55:03+00:00,"48.84993035512154, 2.294612042605877",Paris,75056,0.47058823529411764,10,48.84993035512154,2.294612042605877,15.0
31022,Mairie de Montreuil,OUI,51,49,2,2,0,OUI,OUI,2025-03-13 09:58:36+00:00,"48.86131452758348, 2.440614402294159",Montreuil,93048,0.0392156862745098,10,48.86131452758348,2.440614402294159,Hors Paris
2111,Chabanais - Petits Champs,OUI,29,1,28,22,6,OUI,OUI,2025-03-13 09:58:10+00:00,"48.86703740186721, 2.336716018617153",Paris,75056,0.9655172413793104,10,48.86703740186721,2.336716018617153,2.0
46002,Rouget de Lisle,OUI,35,3,32,16,16,OUI,OUI,2025-03-13 09:55:42+00:00,"48.764615483395254, 2.4071189761161804",Choisy-le-Roi,94022,0.9142857142857143,10,48.764615483395254,2.4071189761161804,Hors Paris
18022,Marcadet - Barbès,OUI,34,33,1,0,1,OUI,OUI,2025-03-13 10:00:36+00:00,"48.890451120965, 2.3490573929687",Paris,75056,0.029411764705882353,10,48.890451120965,2.3490573929687,18.0
10016,Récollets - Square Villemin,OUI,17,13,4,2,2,OUI,OUI,2025-03-13 10:00:10+00:00,"48.875034655883944, 2.359801238597928",Paris,75056,0.23529411764705882,10,48.875034655883944,2.359801238597928,10.0
14012,Sibelle - Alésia,OUI,37,36,1,0,1,OUI,OUI,2025-03-13 09:58:57+00:00,"48.826701758539215, 2.3384983465075493",Paris,75056,0.02702702702702703,10,48.826701758539215,2.3384983465075493,14.0
31009,Place Du Général De Gaulle,OUI,25,24,1,0,1,OUI,OUI,2025-03-13 09:58:11+00:00,"48.8687591, 2.4329931",Montreuil,93048,0.04,10,48.8687591,2.4329931,Hors Paris
10042,Enghien - Faubourg Poissonnière,OUI,32,6,26,16,10,OUI,OUI,2025-03-13 09:55:29+00:00,"48.872420063053, 2.3483952362828",Paris,75056,0.8125,10,48.872420063053,2.3483952362828,10.0
33017,Anatole France - President Roosevelt,OUI,25,17,8,5,3,OUI,OUI,2025-03-13 10:00:52+00:00,"48.9155156, 2.3814103",Aubervilliers,93001,0.32,10,48.9155156,2.3814103,Hors Paris
17203,Place de la Porte de Champeret,OUI,28,9,19,18,1,OUI,OUI,2025-03-13 10:00:01+00:00,"48.886062068226, 2.2917001576821",Paris,75056,0.6785714285714286,10,48.886062068226,2.2917001576821,17.0
15042,Henry Farman,OUI,16,3,13,11,2,OUI,OUI,2025-03-13 09:56:58+00:00,"48.83372430280548, 2.2713854536414146",Paris,75056,0.8125,10,48.83372430280548,2.2713854536414146,15.0
4016,Lobau - Hôtel de Ville,OUI,59,2,57,47,10,OUI,OUI,2025-03-13 10:01:22+00:00,"48.8562118, 2.3532536",Paris,75056,0.9661016949152542,10,48.8562118,2.3532536,4.0
18011,Pajol - Place Herbert,OUI,39,39,0,0,0,OUI,OUI,2025-03-13 09:58:25+00:00,"48.8927825, 2.3635598",Paris,75056,0.0,10,48.8927825,2.3635598,18.0
8045,Place de la Reine Astrid,OUI,56,21,35,16,19,OUI,OUI,2025-03-13 10:00:00+00:00,"48.864920982538, 2.3025491823859",Paris,75056,0.625,10,48.864920982538,2.3025491823859,8.0
33102,Gabriel Péri - Francisco Ferrer,OUI,17,16,1,0,1,OUI,OUI,2025-03-13 09:53:01+00:00,"48.88633710236977, 2.407338917255402",Le Pré-Saint-Gervais,93061,0.058823529411764705,10,48.88633710236977,2.407338917255402,Hors Paris
15133,Saint Lambert - Blomet,OUI,25,19,6,4,2,OUI,OUI,2025-03-13 09:58:33+00:00,"48.83659148147257, 2.2930556908249855",Paris,75056,0.24,10,48.83659148147257,2.2930556908249855,15.0
42706,Roger Salengro - Fontainebleau,OUI,25,24,1,0,1,OUI,OUI,2025-03-13 10:00:41+00:00,"48.814548697325, 2.3611663654447",Le Kremlin-Bicêtre,94043,0.04,10,48.814548697325,2.3611663654447,Hors Paris
15110,Place Robert Guillemard,OUI,22,3,19,18,1,OUI,OUI,2025-03-13 09:59:05+00:00,"48.836191728066666, 2.2811267160086417",Paris,75056,0.8636363636363636,10,48.836191728066666,2.2811267160086417,15.0
18003,Cimetière de Montmartre,OUI,43,41,2,0,2,OUI,OUI,2025-03-13 09:54:01+00:00,"48.886472466142, 2.3328901827335",Paris,75056,0.046511627906976744,10,48.886472466142,2.3328901827335,18.0
15104,Hôpital Européen Georges Pompidou,OUI,64,6,58,49,9,OUI,OUI,2025-03-13 10:00:59+00:00,"48.837695319163, 2.2753742337227",Paris,75056,0.90625,10,48.837695319163,2.2753742337227,15.0
20131,Repos - Cimetière du Père Lachaise,OUI,33,32,1,1,0,OUI,OUI,2025-03-13 09:53:59+00:00,"48.859358523593, 2.3896131366845",Paris,75056,0.030303030303030304,10,48.859358523593,2.3896131366845,20.0
5018,Mutualité,OUI,37,10,27,21,6,OUI,OUI,2025-03-13 09:59:37+00:00,"48.848225572724, 2.3502873256803",Paris,75056,0.7297297297297297,10,48.848225572724,2.3502873256803,5.0
21015,Nationale - Place Jules Guesde,OUI,23,4,19,10,9,OUI,OUI,2025-03-13 10:00:27+00:00,"48.82753962462998, 2.2416052222251897",Boulogne-Billancourt,92012,0.8260869565217391,10,48.82753962462998,2.2416052222251897,Hors Paris
19103,Manin - Carrières d'Amérique,OUI,17,16,1,0,1,OUI,OUI,2025-03-13 09:59:09+00:00,"48.88467214209463, 2.3919698596000676",Paris,75056,0.058823529411764705,10,48.88467214209463,2.3919698596000676,19.0
5028,Censier - Jardin des Plantes,OUI,28,4,24,21,3,OUI,OUI,2025-03-13 09:57:32+00:00,"48.84107178161383, 2.355475388467312",Paris,75056,0.8571428571428571,10,48.84107178161383,2.355475388467312,5.0
12114,Victor Hugo - Jeanne Jugan,OUI,28,25,3,1,2,OUI,OUI,2025-03-13 09:54:59+00:00,"48.843949064031825, 2.415081394834419",Paris,75056,0.10714285714285714,10,48.843949064031825,2.415081394834419,12.0
22203,Tertres - Fontaine,OUI,27,26,1,0,1,OUI,OUI,2025-03-13 09:59:52+00:00,"48.787553654715644, 2.306235730648041",Bagneux,92007,0.037037037037037035,10,48.787553654715644,2.306235730648041,Hors Paris
21312,Lucie Aubrac - Fort,OUI,30,30,0,0,0,OUI,OUI,2025-03-13 09:53:01+00:00,"48.818144834008976, 2.271184623241425",Issy-les-Moulineaux,92040,0.0,10,48.818144834008976,2.271184623241425,Hors Paris
1119,Cossonnerie - Sébastopol,OUI,23,10,13,7,6,OUI,OUI,2025-03-13 09:57:09+00:00,"48.86132665908402, 2.349419631063938",Paris,75056,0.5652173913043478,10,48.86132665908402,2.349419631063938,1.0
14008,Mouton Duvernet - Général Leclerc,OUI,26,24,2,0,2,OUI,OUI,2025-03-13 10:01:02+00:00,"48.831632518293, 2.3293121159077",Paris,75056,0.07692307692307693,10,48.831632518293,2.3293121159077,14.0
1020,Cambon - Rivoli,OUI,34,3,31,17,14,OUI,OUI,2025-03-13 10:00:27+00:00,"48.866143390992, 2.3251800647137",Paris,75056,0.9117647058823529,10,48.866143390992,2.3251800647137,1.0
18028,Championnet - Vauvenargues,OUI,31,30,1,0,1,OUI,OUI,2025-03-13 09:59:49+00:00,"48.89401874744574, 2.3319872841238976",Paris,75056,0.03225806451612903,10,48.89401874744574,2.3319872841238976,18.0
20115,Louis Lumière - Porte de Bagnolet,OUI,20,20,0,0,0,OUI,OUI,2025-03-13 09:53:28+00:00,"48.86431136000005, 2.4105210229754443",Paris,75056,0.0,10,48.86431136000005,2.4105210229754443,20.0
8017,Rocher - Laborde,OUI,65,51,14,9,5,OUI,OUI,2025-03-13 10:00:17+00:00,"48.87590240712654, 2.322616316378116",Paris,75056,0.2153846153846154,10,48.87590240712654,2.322616316378116,8.0
22402,Jean Jaurès - Salvador Allende,OUI,42,39,3,0,3,OUI,OUI,2025-03-13 09:59:54+00:00,"48.821475594736775, 2.3026576638221745",Malakoff,92046,0.07142857142857142,10,48.821475594736775,2.3026576638221745,Hors Paris
5124,Erasme - Ulm,OUI,22,2,20,0,20,OUI,OUI,2025-03-13 10:01:16+00:00,"48.84264375274712, 2.3445946723222733",Paris,75056,0.9090909090909091,10,48.84264375274712,2.3445946723222733,5.0
9116,Victoire - Chaussée d'Antin,OUI,24,1,23,9,14,OUI,OUI,2025-03-13 09:59:23+00:00,"48.875065791004396, 2.3316738009452824",Paris,75056,0.9583333333333334,10,48.875065791004396,2.3316738009452824,9.0
14106,Marc Sangnier - Porte de Vanves,OUI,20,20,0,0,0,OUI,OUI,2025-03-13 10:01:27+00:00,"48.825218683556734, 2.3107116669416428",Paris,75056,0.0,10,48.825218683556734,2.3107116669416428,14.0
17013,Legendre - Dulong,OUI,23,22,1,0,1,OUI,OUI,2025-03-13 09:57:16+00:00,"48.885325169402904, 2.316423766314984",Paris,75056,0.043478260869565216,10,48.885325169402904,2.316423766314984,17.0
18046,Etienne Jodelle - Saint Ouen,OUI,32,31,1,0,1,OUI,OUI,2025-03-13 09:52:17+00:00,"48.88794016394694, 2.326124420314341",Paris,75056,0.03125,10,48.88794016394694,2.326124420314341,18.0
11026,Chemin Vert - Saint-Maur,OUI,44,42,2,0,2,OUI,OUI,2025-03-13 09:57:00+00:00,"48.86112461407359, 2.381299026310444",Paris,75056,0.045454545454545456,10,48.86112461407359,2.381299026310444,11.0
22406,Guy Môquet - Etienne Dolet,OUI,22,21,1,0,1,OUI,OUI,2025-03-13 09:58:03+00:00,"48.81527009991819, 2.298078276995073",Malakoff,92046,0.045454545454545456,10,48.81527009991819,2.298078276995073,Hors Paris
32604,Square du Théâtre du Garde-Chasse,OUI,50,48,2,0,2,OUI,OUI,2025-03-13 09:56:10+00:00,"48.881287375060616, 2.420119643211365",Les Lilas,93045,0.04,10,48.881287375060616,2.420119643211365,Hors Paris
31102,Boissière - Etienne Dolet,OUI,20,19,1,1,0,OUI,OUI,2025-03-13 10:01:13+00:00,"48.876111, 2.4677312",Montreuil,93048,0.05,10,48.876111,2.4677312,Hors Paris
23006,Jules Guesde - Alsace,OUI,23,3,20,10,10,OUI,OUI,2025-03-13 09:58:34+00:00,"48.890566275506, 2.2950777411461",Levallois-Perret,92044,0.8695652173913043,10,48.890566275506,2.2950777411461,Hors Paris
8054,Bertie Albrecht - Hoche,OUI,32,12,20,8,12,OUI,OUI,2025-03-13 09:56:18+00:00,"48.87614039826388, 2.301303138307601",Paris,75056,0.625,10,48.87614039826388,2.301303138307601,8.0
17105,Place Madeleine Daniélou,OUI,42,16,26,19,7,OUI,OUI,2025-03-13 10:01:00+00:00,"48.883498, 2.282015",Paris,75056,0.6190476190476191,10,48.883498,2.282015,17.0
15109,Cevennes - Bergers,OUI,28,20,8,5,3,OUI,OUI,2025-03-13 10:01:25+00:00,"48.84240765130395, 2.281037718057633",Paris,75056,0.2857142857142857,10,48.84240765130395,2.281037718057633,15.0
9010,Rochechouart lamartine,OUI,23,18,5,0,5,OUI,OUI,2025-03-13 09:57:55+00:00,"48.876719895109, 2.344393021854",Paris,75056,0.21739130434782608,10,48.876719895109,2.344393021854,9.0
21209,Molière - République,OUI,30,28,2,0,2,OUI,OUI,2025-03-13 09:54:21+00:00,"48.81111581390707, 2.3145738624448158",Montrouge,92049,0.06666666666666667,10,48.81111581390707,2.3145738624448158,Hors Paris
11105,Parmentier - République,OUI,21,16,5,1,4,OUI,OUI,2025-03-13 09:59:46+00:00,"48.8644954, 2.3750124",Paris,75056,0.23809523809523808,10,48.8644954,2.3750124,11.0
21005,Hôtel de Ville de Boulogne Billancourt,OUI,25,6,19,9,10,OUI,OUI,2025-03-13 09:54:41+00:00,"48.83495885166784, 2.2416803240776066",Boulogne-Billancourt,92012,0.76,10,48.83495885166784,2.2416803240776066,Hors Paris
16108,Sablons - Georges Mandel,OUI,38,35,3,1,2,OUI,OUI,2025-03-13 09:54:17+00:00,"48.863875, 2.28189",Paris,75056,0.07894736842105263,10,48.863875,2.28189,16.0
35010,Hoche - Jean Lolive,OUI,20,15,5,3,2,OUI,OUI,2025-03-13 09:59:30+00:00,"48.89110239200789, 2.402843534946442",Pantin,93055,0.25,10,48.89110239200789,2.402843534946442,Hors Paris
17125,Marie-Georges Picquart - Pereire,OUI,31,25,6,2,4,OUI,OUI,2025-03-13 09:58:48+00:00,"48.88863669349711, 2.3111706599593163",Paris,75056,0.1935483870967742,10,48.88863669349711,2.3111706599593163,17.0
42014,Place Marcel Cachin,OUI,32,3,29,25,4,OUI,OUI,2025-03-13 09:58:45+00:00,"48.81411442356866, 2.39090770483017",Ivry-sur-Seine,94041,0.90625,10,48.81411442356866,2.39090770483017,Hors Paris
16136,Théophile Gautier - François Millet,OUI,27,22,5,2,3,OUI,OUI,2025-03-13 10:01:07+00:00,"48.85034821320644, 2.273029983043671",Paris,75056,0.18518518518518517,10,48.85034821320644,2.273029983043671,16.0
14124,David Weill - Parc Montsouris,OUI,22,19,3,1,2,OUI,OUI,2025-03-13 10:01:08+00:00,"48.821092374256104, 2.333725690841675",Paris,75056,0.13636363636363635,10,48.821092374256104,2.333725690841675,14.0
19032,Villette - Belleville,OUI,39,36,3,2,1,OUI,OUI,2025-03-13 09:59:08+00:00,"48.8726877314, 2.376461327076",Paris,75056,0.07692307692307693,10,48.8726877314,2.376461327076,19.0
21006,Marcelin Berthelot,OUI,27,20,7,4,3,OUI,OUI,2025-03-13 10:01:20+00:00,"48.8415473058801, 2.233161628246308",Boulogne-Billancourt,92012,0.25925925925925924,10,48.8415473058801,2.233161628246308,Hors Paris
19022,Marché Secrétan,OUI,25,21,4,2,2,OUI,OUI,2025-03-13 10:01:23+00:00,"48.88125496379482, 2.373463287949562",Paris,75056,0.16,10,48.88125496379482,2.373463287949562,19.0
44013,Edouard Tremblay - Julian Grimaux,OUI,30,27,3,2,1,OUI,OUI,2025-03-13 09:53:49+00:00,"48.781383825117, 2.3723508417606",Vitry-sur-Seine,94081,0.1,10,48.781383825117,2.3723508417606,Hors Paris
22003,Beffroy,OUI,26,5,21,4,17,OUI,OUI,2025-03-13 09:59:41+00:00,"48.886591074488, 2.2613945603371",Neuilly-sur-Seine,92051,0.8076923076923077,10,48.886591074488,2.2613945603371,Hors Paris
6025,Assas - Rennes,OUI,32,11,21,11,10,OUI,OUI,2025-03-13 10:00:45+00:00,"48.8492084999386, 2.32851454623001",Paris,75056,0.65625,10,48.8492084999386,2.32851454623001,6.0
44003,Gabriel Péri - Danielle Casanova,OUI,20,5,15,9,6,OUI,OUI,2025-03-13 09:58:17+00:00,"48.790114, 2.4025777",Vitry-sur-Seine,94081,0.75,10,48.790114,2.4025777,Hors Paris
21008,Victor Hugo - Galliéni,OUI,33,20,13,13,0,OUI,OUI,2025-03-13 09:57:33+00:00,"48.838020154411, 2.2460845112801",Boulogne-Billancourt,92012,0.3939393939393939,10,48.838020154411,2.2460845112801,Hors Paris
15034,Lakanal - Commerce,OUI,48,11,37,36,1,OUI,OUI,2025-03-13 09:57:54+00:00,"48.84442462786544, 2.294059172272682",Paris,75056,0.7708333333333334,10,48.84442462786544,2.294059172272682,15.0
20134,Lieutenant Chauré - Etienne Marey,OUI,19,19,0,0,0,OUI,OUI,2025-03-13 10:00:38+00:00,"48.86746195408435, 2.405970990657807",Paris,75056,0.0,10,48.86746195408435,2.405970990657807,20.0
48010,Karl Marx,OUI,16,2,14,4,10,OUI,OUI,2025-03-13 09:53:47+00:00,"48.784527937293184, 2.3646667979455587",Villejuif,94076,0.875,10,48.784527937293184,2.3646667979455587,Hors Paris
24001,Arche - Léonard de Vinci,OUI,28,14,14,8,6,OUI,OUI,2025-03-13 09:53:27+00:00,"48.89790972494496, 2.2383723043644914",Courbevoie,92026,0.5,10,48.89790972494496,2.2383723043644914,Hors Paris
41202,Gare Rer de Fontenay sous Bois,OUI,59,51,8,2,6,OUI,OUI,2025-03-13 10:00:57+00:00,"48.8436279, 2.4630465",Fontenay-sous-Bois,94033,0.13559322033898305,10,48.8436279,2.4630465,Hors Paris
22016,Charles de Gaulle - Sablonville,OUI,26,11,15,7,8,OUI,OUI,2025-03-13 10:01:25+00:00,"48.87991924860035, 2.2763770446181297",Neuilly-sur-Seine,92051,0.5769230769230769,10,48.87991924860035,2.2763770446181297,Hors Paris
42021,Raspail - Manufacture des Oeillets,OUI,29,5,24,24,0,OUI,OUI,2025-03-13 10:01:22+00:00,"48.8094458, 2.3903009",Ivry-sur-Seine,94041,0.8275862068965517,10,48.8094458,2.3903009,Hors Paris
14136,Auguste Cain - Jean Moulin,OUI,40,39,1,0,1,OUI,OUI,2025-03-13 09:57:52+00:00,"48.82577028927573, 2.3210415244102482",Paris,75056,0.025,10,48.82577028927573,2.3210415244102482,14.0
35020,Marcelle - Thalie,OUI,20,20,0,0,0,OUI,OUI,2025-03-13 09:58:18+00:00,"48.8835462, 2.4137883",Pantin,93055,0.0,10,48.8835462,2.4137883,Hors Paris
32302,Chemin Vert - Fraternité,OUI,20,17,3,1,2,OUI,OUI,2025-03-13 09:58:25+00:00,"48.877141208359035, 2.4461565166711807",Romainville,93063,0.15,10,48.877141208359035,2.4461565166711807,Hors Paris
25003,Henri Ste-Claire Déville - Paul Héroult,OUI,21,7,14,6,8,OUI,OUI,2025-03-13 10:01:16+00:00,"48.892663, 2.172411",Rueil-Malmaison,92063,0.6666666666666666,10,48.892663,2.172411,Hors Paris
10014,Marseille - Beaurepaire,OUI,46,4,42,30,12,OUI,OUI,2025-03-13 09:58:46+00:00,"48.871624306962985, 2.3639265082738348",Paris,75056,0.9130434782608695,10,48.871624306962985,2.3639265082738348,10.0
31003,Paris - Emile Zola,OUI,29,29,0,0,0,OUI,OUI,2025-03-13 10:01:11+00:00,"48.854898095789295, 2.4186685681343083",Montreuil,93048,0.0,10,48.854898095789295,2.4186685681343083,Hors Paris
11035,Parmentier - Abel Rabaud,OUI,49,49,0,0,0,OUI,OUI,2025-03-13 10:01:04+00:00,"48.86921273836114, 2.371688821240712",Paris,75056,0.0,10,48.86921273836114,2.371688821240712,11.0
11030,Oberkampf - République,OUI,21,19,2,0,2,OUI,OUI,2025-03-13 10:01:26+00:00,"48.86531608707, 2.37611478491",Paris,75056,0.09523809523809523,10,48.86531608707,2.37611478491,11.0
16040,Exelmans - Michel-Ange,OUI,31,12,19,15,4,OUI,OUI,2025-03-13 10:01:23+00:00,"48.84309486651855, 2.2597770800669053",Paris,75056,0.6129032258064516,10,48.84309486651855,2.2597770800669053,16.0
11039,Richard Lenoir - Jean-Pierre Timbaud,OUI,35,16,19,19,0,OUI,OUI,2025-03-13 10:00:59+00:00,"48.865804276686, 2.3693370749669",Paris,75056,0.5428571428571428,10,48.865804276686,2.3693370749669,11.0
22006,Pierret - Madrid,OUI,27,2,25,14,11,OUI,OUI,2025-03-13 09:59:32+00:00,"48.882976576876565, 2.260125767248034",Neuilly-sur-Seine,92051,0.9259259259259259,10,48.882976576876565,2.260125767248034,Hors Paris
19024,Botzaris - Parc des Buttes Chaumont,OUI,20,18,2,0,2,OUI,OUI,2025-03-13 09:53:24+00:00,"48.877951, 2.381464",Paris,75056,0.1,10,48.877951,2.381464,19.0
17028,Reims - Raymond Pitet,OUI,36,17,19,16,3,OUI,OUI,2025-03-13 10:00:34+00:00,"48.8888, 2.296319",Paris,75056,0.5277777777777778,10,48.8888,2.296319,17.0
41601,Général De Gaulle - Alouette,OUI,23,20,3,1,2,OUI,OUI,2025-03-13 10:01:05+00:00,"48.839109, 2.4175664",Saint-Mandé,94067,0.13043478260869565,10,48.839109,2.4175664,Hors Paris
42302,Aristide Briand - Gare de Bagneux,OUI,20,18,2,1,1,OUI,OUI,2025-03-13 09:57:31+00:00,"48.79387269664978, 2.321148812770844",Cachan,94016,0.1,10,48.79387269664978,2.321148812770844,Hors Paris
15021,Joseph Liouville - Croix Nivert,OUI,63,41,22,22,0,OUI,OUI,2025-03-13 10:00:59+00:00,"48.844835471244416, 2.297508493065834",Paris,75056,0.3492063492063492,10,48.844835471244416,2.297508493065834,15.0
19029,Seine - Flandre,OUI,18,17,1,0,1,OUI,OUI,2025-03-13 09:57:19+00:00,"48.886785741479684, 2.3746193200349808",Paris,75056,0.05555555555555555,10,48.886785741479684,2.3746193200349808,19.0
18009,Jean-François Lépine - Stephenson,OUI,22,20,2,0,2,OUI,OUI,2025-03-13 09:51:06+00:00,"48.88611466796807, 2.356855627529275",Paris,75056,0.09090909090909091,10,48.88611466796807,2.356855627529275,18.0
32003,Wilson - Métallurgie,OUI,28,10,18,11,7,OUI,OUI,2025-03-13 09:59:58+00:00,"48.909423010092326, 2.3584435880184174",Saint-Denis,93066,0.6428571428571429,10,48.909423010092326,2.3584435880184174,Hors Paris
43005,Gare RER de Vincennes,OUI,48,25,23,7,16,OUI,OUI,2025-03-13 10:00:20+00:00,"48.847563015126106, 2.433383166790009",Vincennes,94080,0.4791666666666667,10,48.847563015126106,2.433383166790009,Hors Paris
21104,Madame de Sanzillon - Mozart,OUI,22,1,21,11,10,OUI,OUI,2025-03-13 10:00:54+00:00,"48.90379820774301, 2.3187401890754704",Clichy,92024,0.9545454545454546,10,48.90379820774301,2.3187401890754704,Hors Paris
21701,Larmeroux - Baudelaire,OUI,28,28,0,0,0,OUI,OUI,2025-03-13 09:56:42+00:00,"48.816939911292, 2.2809894804846",Vanves,92075,0.0,10,48.816939911292,2.2809894804846,Hors Paris
42504,Gare RER de Gentilly,OUI,30,27,3,1,2,OUI,OUI,2025-03-13 09:59:44+00:00,"48.814280450380224, 2.3410347104072575",Gentilly,94037,0.1,10,48.814280450380224,2.3410347104072575,Hors Paris
16008,Galilée - Kléber,OUI,30,13,17,3,14,OUI,OUI,2025-03-13 09:58:55+00:00,"48.867411865714, 2.2907813801148",Paris,75056,0.5666666666666667,10,48.867411865714,2.2907813801148,16.0
26013,Quai du docteur Dervaux,OUI,26,16,10,9,1,OUI,OUI,2025-03-13 09:57:20+00:00,"48.910482, 2.297998",Asnières-sur-Seine,92004,0.38461538461538464,10,48.910482,2.297998,Hors Paris
11024,Mairie du 11ème,OUI,51,32,19,17,2,OUI,OUI,2025-03-13 09:59:31+00:00,"48.858925, 2.3789759",Paris,75056,0.37254901960784315,10,48.858925,2.3789759,11.0
20111,Villiers de l'Isle Adam - Pyrénées,OUI,20,20,0,0,0,OUI,OUI,2025-03-13 09:52:11+00:00,"48.867362, 2.396222",Paris,75056,0.0,10,48.867362,2.396222,20.0
13050,Quai Panhard et Levassor,OUI,57,1,56,29,27,OUI,OUI,2025-03-13 09:59:49+00:00,"48.828374828097, 2.3842737458056",Paris,75056,0.9824561403508771,10,48.828374828097,2.3842737458056,13.0
32016,Place de la Porte de Paris,OUI,37,26,11,4,7,OUI,OUI,2025-03-13 10:00:40+00:00,"48.93009363207303, 2.3564037680625916",Saint-Denis,93066,0.2972972972972973,10,48.93009363207303,2.3564037680625916,Hors Paris
42010,Mairie d'Ivry-sur-Seine,OUI,51,24,27,24,3,OUI,OUI,2025-03-13 09:59:51+00:00,"48.81057120969284, 2.3842826485633855",Ivry-sur-Seine,94041,0.5294117647058824,10,48.81057120969284,2.3842826485633855,Hors Paris
15201,Place Amédée Gordini - Lefebvre,OUI,36,29,7,3,4,OUI,OUI,2025-03-13 09:55:07+00:00,"48.83061737745, 2.2920634208276",Paris,75056,0.19444444444444445,10,48.83061737745,2.2920634208276,15.0
15046,Parc Georges Brassens - Brancion,OUI,28,27,1,0,1,OUI,OUI,2025-03-13 10:00:47+00:00,"48.83227829269761, 2.3022570088505745",Paris,75056,0.03571428571428571,10,48.83227829269761,2.3022570088505745,15.0
19008,Flandre - Alphonse Karr,OUI,26,23,3,0,3,OUI,OUI,2025-03-13 09:56:59+00:00,"48.89465, 2.381868",Paris,75056,0.11538461538461539,10,48.89465,2.381868,19.0
46001,Place Paul Eluard,OUI,19,5,14,9,5,OUI,OUI,2025-03-13 09:56:59+00:00,"48.7672039733195, 2.4144977331161503",Choisy-le-Roi,94022,0.7368421052631579,10,48.7672039733195,2.4144977331161503,Hors Paris
11004,Charonne - Faubourg Saint-Antoine,OUI,32,2,30,25,5,OUI,OUI,2025-03-13 10:01:02+00:00,"48.852191909696, 2.3740932717919",Paris,75056,0.9375,10,48.852191909696,2.3740932717919,11.0
21301,Saint-Vincent - Verdun,OUI,33,3,30,28,2,OUI,OUI,2025-03-13 09:59:38+00:00,"48.819211549234495, 2.254007756710053",Issy-les-Moulineaux,92040,0.9090909090909091,10,48.819211549234495,2.254007756710053,Hors Paris
92008,Hôtel de Ville de Nanterre,OUI,35,11,24,13,11,OUI,OUI,2025-03-13 10:01:05+00:00,"48.892371898250424, 2.205548956990242",Nanterre,92050,0.6857142857142857,10,48.892371898250424,2.205548956990242,Hors Paris
9032,Mathurins - Auber,OUI,35,6,29,18,11,OUI,OUI,2025-03-13 10:00:36+00:00,"48.872988840744, 2.3294984212276",Paris,75056,0.8285714285714286,10,48.872988840744,2.3294984212276,9.0
51004,Général Delambre - Prebuard,OUI,28,16,12,2,10,OUI,OUI,2025-03-13 09:54:37+00:00,"48.93870344444, 2.2234171606307",Argenteuil,95018,0.42857142857142855,10,48.93870344444,2.2234171606307,Hors Paris
19016,Hautpoul - Jean Jaurès,OUI,30,29,1,0,1,OUI,OUI,2025-03-13 09:56:45+00:00,"48.886393679436, 2.3865414544355",Paris,75056,0.03333333333333333,10,48.886393679436,2.3865414544355,19.0
19205,Simon Bolivar - Henri Turot,OUI,23,23,0,0,0,OUI,OUI,2025-03-13 09:56:00+00:00,"48.877475489801, 2.3739709492211",Paris,75056,0.0,10,48.877475489801,2.3739709492211,19.0
11042,Grand Prieuré - Crussol,OUI,46,18,28,27,1,OUI,OUI,2025-03-13 09:59:41+00:00,"48.864660627935, 2.3692265531829",Paris,75056,0.6086956521739131,10,48.864660627935,2.3692265531829,11.0
5123,Saint-Germain - Thenard,OUI,29,5,24,17,7,OUI,OUI,2025-03-13 10:01:24+00:00,"48.850571, 2.3471015",Paris,75056,0.8275862068965517,10,48.850571,2.3471015,5.0
32026,Leroy des Barres - Médiathèque,OUI,27,4,23,9,14,OUI,OUI,2025-03-13 10:00:51+00:00,"48.928253687082, 2.3681719727966",Saint-Denis,93066,0.8518518518518519,10,48.928253687082,2.3681719727966,Hors Paris
43003,Hôpital Bégin,OUI,26,26,0,0,0,NON,NON,2025-03-13 09:58:04+00:00,"48.84571672113, 2.4272462725639",Vincennes,94080,0.0,10,48.84571672113,2.4272462725639,Hors Paris
9005,Square d'Anvers,OUI,31,29,2,1,1,OUI,OUI,2025-03-13 09:57:36+00:00,"48.882633484311, 2.3448844062122",Paris,75056,0.06451612903225806,10,48.882633484311,2.3448844062122,9.0
23009,Anatole France - Louise Michel,OUI,47,43,4,3,1,OUI,OUI,2025-03-13 09:59:46+00:00,"48.88873214926474, 2.2881576418876652",Levallois-Perret,92044,0.0851063829787234,10,48.88873214926474,2.2881576418876652,Hors Paris
1013,Place du Palais Royal,OUI,65,2,63,43,20,OUI,OUI,2025-03-13 10:00:51+00:00,"48.862382970647, 2.3384822532535",Paris,75056,0.9692307692307692,10,48.862382970647,2.3384822532535,1.0
17102,Alfred Roll - Berthier,OUI,28,20,8,7,1,OUI,OUI,2025-03-13 10:00:13+00:00,"48.887808570529, 2.3000952981763",Paris,75056,0.2857142857142857,10,48.887808570529,2.3000952981763,17.0
8025,Miromesnil - La Boétie,OUI,32,3,29,9,20,OUI,OUI,2025-03-13 10:01:10+00:00,"48.873722412917, 2.3158480972052",Paris,75056,0.90625,10,48.873722412917,2.3158480972052,8.0
18110,Departement - Pajol,OUI,16,14,2,1,1,OUI,OUI,2025-03-13 10:01:14+00:00,"48.886674849730184, 2.3613611608743668",Paris,75056,0.125,10,48.886674849730184,2.3613611608743668,18.0
7102,Mairie du 7ème,OUI,48,4,44,26,18,OUI,OUI,2025-03-13 10:00:49+00:00,"48.8577967, 2.3192664",Paris,75056,0.9166666666666666,10,48.8577967,2.3192664,7.0
10113,Parmentier - Hôpital Saint-Louis,OUI,39,34,5,3,2,OUI,OUI,2025-03-13 09:58:42+00:00,"48.871379874257, 2.3698963836667",Paris,75056,0.1282051282051282,10,48.871379874257,2.3698963836667,10.0
13002,Arago - Glacière,OUI,26,21,5,4,1,OUI,OUI,2025-03-13 10:01:27+00:00,"48.83486054775774, 2.3445770524322067",Paris,75056,0.19230769230769232,10,48.83486054775774,2.3445770524322067,13.0
41606,Pasteur - Gambetta,OUI,19,7,12,9,3,OUI,OUI,2025-03-13 10:00:30+00:00,"48.84572797384512, 2.4236011505126953",Saint-Mandé,94067,0.631578947368421,10,48.84572797384512,2.4236011505126953,Hors Paris
20121,Boyer - Ménilmontant,OUI,19,19,0,0,0,OUI,OUI,2025-03-13 09:51:54+00:00,"48.868895162679, 2.3919824145635",Paris,75056,0.0,10,48.868895162679,2.3919824145635,20.0
6013,Jacques Callot - Mazarine,OUI,27,0,27,25,2,OUI,OUI,2025-03-13 10:01:03+00:00,"48.855280175332, 2.3375743255019",Paris,75056,1.0,10,48.855280175332,2.3375743255019,6.0
19013,Laumière - Petit,OUI,32,31,1,0,1,OUI,OUI,2025-03-13 10:00:27+00:00,"48.88467368538326, 2.380039058625698",Paris,75056,0.03125,10,48.88467368538326,2.380039058625698,19.0
12115,Porte de Vincennes,OUI,32,30,2,1,1,OUI,OUI,2025-03-13 09:57:33+00:00,"48.846454, 2.415514",Paris,75056,0.0625,10,48.846454,2.415514,12.0
42301,Gare Arcueil - Cachan,OUI,25,10,15,2,13,OUI,OUI,2025-03-13 10:01:04+00:00,"48.799824, 2.328171",Arcueil,94003,0.6,10,48.799824,2.328171,Hors Paris
8033,Commandant Rivière,OUI,39,3,36,24,12,OUI,OUI,2025-03-13 10:00:53+00:00,"48.872933, 2.309796",Paris,75056,0.9230769230769231,10,48.872933,2.309796,8.0
20043,Charonne - Avron,OUI,26,25,1,1,0,OUI,OUI,2025-03-13 10:01:28+00:00,"48.851602665222, 2.3984030470379",Paris,75056,0.038461538461538464,10,48.851602665222,2.3984030470379,20.0
16121,Jardin d'Acclimatation,OUI,30,19,11,7,4,OUI,OUI,2025-03-13 10:00:33+00:00,"48.878772242510465, 2.270772233605385",Paris,75056,0.36666666666666664,10,48.878772242510465,2.270772233605385,16.0
42015,Place Jean Ferrat,OUI,23,23,0,0,0,OUI,OUI,2025-03-13 09:59:07+00:00,"48.8184945213025, 2.3744174838066106",Ivry-sur-Seine,94041,0.0,10,48.8184945213025,2.3744174838066106,Hors Paris
41102,Gare de Laplace,OUI,43,42,1,1,0,OUI,OUI,2025-03-13 09:54:53+00:00,"48.80893199114179, 2.3349460959434514",Arcueil,94003,0.023255813953488372,10,48.80893199114179,2.3349460959434514,Hors Paris
31010,Stalingrad - Désiré Chevalier,OUI,41,39,2,1,1,OUI,OUI,2025-03-13 09:54:54+00:00,"48.85670169739857, 2.445072233676911",Montreuil,93048,0.04878048780487805,10,48.85670169739857,2.445072233676911,Hors Paris
17037,Bayen - Pereire,OUI,21,17,4,3,1,OUI,OUI,2025-03-13 10:00:19+00:00,"48.881804409079656, 2.2921088710427284",Paris,75056,0.19047619047619047,10,48.881804409079656,2.2921088710427284,17.0
18201,Tristan Tzara -  Tchaïkovski,OUI,32,29,3,1,2,OUI,OUI,2025-03-13 10:01:21+00:00,"48.89490221746837, 2.3648490384221077",Paris,75056,0.09375,10,48.89490221746837,2.3648490384221077,18.0
16124,Route de Sèvres - Porte de Bagatelle,OUI,65,10,55,51,4,OUI,OUI,2025-03-13 09:59:34+00:00,"48.87525984132485, 2.249415814876557",Paris,75056,0.8461538461538461,10,48.87525984132485,2.249415814876557,16.0
41402,Victor Hugo - Ecoles,OUI,22,14,8,6,2,OUI,OUI,2025-03-13 09:54:44+00:00,"48.80476007936134, 2.4180373930262093",Alfortville,94002,0.36363636363636365,10,48.80476007936134,2.4180373930262093,Hors Paris
33003,Bordier - Félix Faure,OUI,43,39,4,4,0,OUI,OUI,2025-03-13 09:59:53+00:00,"48.90390751882016, 2.3830059170722966",Aubervilliers,93001,0.09302325581395349,10,48.90390751882016,2.3830059170722966,Hors Paris
18012,Stephenson - Doudeauville,OUI,35,34,1,0,1,OUI,OUI,2025-03-13 09:58:48+00:00,"48.888537048944826, 2.3561610281467438",Paris,75056,0.02857142857142857,10,48.888537048944826,2.3561610281467438,18.0
25005,18 juin 1940 - Buzenval,OUI,25,17,8,4,4,OUI,OUI,2025-03-13 10:00:07+00:00,"48.868807, 2.185428",Rueil-Malmaison,92063,0.32,10,48.868807,2.185428,Hors Paris
12009,Charenton - Diderot,OUI,18,11,7,2,5,OUI,OUI,2025-03-13 09:58:28+00:00,"48.846171461187, 2.3793068155646",Paris,75056,0.3888888888888889,10,48.846171461187,2.3793068155646,12.0
13045,Jean Colly - Tolbiac,OUI,36,34,2,1,1,OUI,OUI,2025-03-13 10:01:08+00:00,"48.827817291597846, 2.3705490678548813",Paris,75056,0.05555555555555555,10,48.827817291597846,2.3705490678548813,13.0
19125,Place de l'Édit de Nantes,OUI,27,20,7,3,4,OUI,OUI,2025-03-13 10:00:36+00:00,"48.88879, 2.3785",Paris,75056,0.25925925925925924,10,48.88879,2.3785,19.0
14034,Ouest - Château,OUI,23,23,0,0,0,OUI,OUI,2025-03-13 09:57:50+00:00,"48.83617286014242, 2.319392143923804",Paris,75056,0.0,10,48.83617286014242,2.319392143923804,14.0
14036,Boulard - Daguerre,OUI,43,41,2,0,2,OUI,OUI,2025-03-13 09:57:38+00:00,"48.83446472680611, 2.3293386027216907",Paris,75056,0.046511627906976744,10,48.83446472680611,2.3293386027216907,14.0
16018,Flandrin - Henri Martin,OUI,18,12,6,0,6,OUI,OUI,2025-03-13 10:00:11+00:00,"48.8643275, 2.2724174",Paris,75056,0.3333333333333333,10,48.8643275,2.2724174,16.0
12034,Pirogues de Bercy - Libourne,OUI,48,28,20,6,14,OUI,OUI,2025-03-13 09:59:21+00:00,"48.832308, 2.38637",Paris,75056,0.4166666666666667,10,48.832308,2.38637,12.0
11036,Jules Ferry - Faubourg du Temple Paris,OUI,56,39,17,17,0,OUI,OUI,2025-03-13 09:59:29+00:00,"48.868397, 2.3678933",Paris,75056,0.30357142857142855,10,48.868397,2.3678933,11.0
25008,Place du 8 Mai 1945,OUI,18,12,6,5,1,OUI,OUI,2025-03-13 09:59:45+00:00,"48.871552174017, 2.2025031970585",Rueil-Malmaison,92063,0.3333333333333333,10,48.871552174017,2.2025031970585,Hors Paris
9021,Saint Georges - d'Aumale,OUI,23,22,1,1,0,OUI,OUI,2025-03-13 10:01:29+00:00,"48.87778639599673, 2.337429821491241",Paris,75056,0.043478260869565216,10,48.87778639599673,2.337429821491241,9.0
19044,Grands Moulins de Pantin,OUI,50,34,16,4,12,OUI,OUI,2025-03-13 10:00:12+00:00,"48.89738369720229, 2.3959985375404362",Paris,75056,0.32,10,48.89738369720229,2.3959985375404362,19.0
12027,Montgallet - Charenton,OUI,15,12,3,3,0,OUI,OUI,2025-03-13 09:58:22+00:00,"48.842647778701, 2.3861649278137",Paris,75056,0.2,10,48.842647778701,2.3861649278137,12.0
24002,Gare de Courbevoie,OUI,32,25,7,5,2,OUI,OUI,2025-03-13 09:57:43+00:00,"48.8993867, 2.2506506",Courbevoie,92026,0.21875,10,48.8993867,2.2506506,Hors Paris
42029,Stalingrad - Germaine Tailleferre,OUI,28,23,5,0,5,OUI,OUI,2025-03-13 10:00:36+00:00,"48.80257200481316, 2.3786691203713417",Ivry-sur-Seine,94041,0.17857142857142858,10,48.80257200481316,2.3786691203713417,Hors Paris
33001,Victor Hugo - Magasins Généraux,OUI,34,23,11,4,7,OUI,OUI,2025-03-13 09:56:58+00:00,"48.903281401126755, 2.368072383105755",Aubervilliers,93001,0.3235294117647059,10,48.903281401126755,2.368072383105755,Hors Paris
8035,Bienfaisance - Place de Narvik,OUI,34,2,32,17,15,OUI,OUI,2025-03-13 10:00:05+00:00,"48.87660163459077, 2.3129771277308464",Paris,75056,0.9411764705882353,10,48.87660163459077,2.3129771277308464,8.0
16034,Porte d'Auteuil,OUI,32,30,2,2,0,OUI,OUI,2025-03-13 09:55:37+00:00,"48.8479394142243, 2.2608396783471107",Paris,75056,0.0625,10,48.8479394142243,2.2608396783471107,16.0
21313,Guynemer - Séverine,OUI,24,3,21,18,3,OUI,OUI,2025-03-13 09:55:40+00:00,"48.83091743371036, 2.2790706530213356",Issy-les-Moulineaux,92040,0.875,10,48.83091743371036,2.2790706530213356,Hors Paris
7009,Assemblée Nationale,OUI,74,8,66,28,38,OUI,OUI,2025-03-13 09:57:39+00:00,"48.861411014652, 2.3201214185208",Paris,75056,0.8918918918918919,10,48.861411014652,2.3201214185208,7.0
28001,Richard Wallace - Place du 8 Mai 1945,OUI,29,16,13,11,2,OUI,OUI,2025-03-13 10:00:58+00:00,"48.87866794788021, 2.2420343756675725",Puteaux,92062,0.4482758620689655,10,48.87866794788021,2.2420343756675725,Hors Paris
20132,Réunion - Avron,OUI,26,25,1,1,0,OUI,OUI,2025-03-13 09:52:10+00:00,"48.852566752033766, 2.403928068708116",Paris,75056,0.038461538461538464,10,48.852566752033766,2.403928068708116,20.0
26007,Square Gilbert Thomain,OUI,19,13,6,6,0,OUI,OUI,2025-03-13 09:53:06+00:00,"48.90717373809284, 2.2695400938391685",Asnières-sur-Seine,92004,0.3157894736842105,10,48.90717373809284,2.2695400938391685,Hors Paris
5119,Jussieu - Guy de la Brosse,OUI,40,1,39,26,13,OUI,OUI,2025-03-13 10:01:00+00:00,"48.845665, 2.355653",Paris,75056,0.975,10,48.845665,2.355653,5.0
16111,Faustin Hélie - Desbordes-Valmore,OUI,27,25,2,0,2,OUI,OUI,2025-03-13 09:57:03+00:00,"48.859403, 2.276522",Paris,75056,0.07407407407407407,10,48.859403,2.276522,16.0
35009,Jean Lolive - Parc Stalingrad,OUI,22,18,4,2,2,OUI,OUI,2025-03-13 09:56:34+00:00,"48.89206174403158, 2.4091735482215886",Pantin,93055,0.18181818181818182,10,48.89206174403158,2.4091735482215886,Hors Paris
11007,Jean Macé - Faidherbe,OUI,58,51,7,3,4,OUI,OUI,2025-03-13 10:00:20+00:00,"48.85337548426, 2.3828620836139",Paris,75056,0.1206896551724138,10,48.85337548426,2.3828620836139,11.0
21109,Guichet - Jean Jaurès,OUI,23,21,2,1,1,OUI,OUI,2025-03-13 09:56:40+00:00,"48.905169868129036, 2.3023840785026555",Clichy,92024,0.08695652173913043,10,48.905169868129036,2.3023840785026555,Hors Paris
15025,Dupleix - du Guesclin,OUI,46,18,28,23,5,OUI,OUI,2025-03-13 09:59:15+00:00,"48.85147910413369, 2.296709530055523",Paris,75056,0.6086956521739131,10,48.85147910413369,2.296709530055523,15.0
23701,Parvis Robert Schuman - Roger Salengro,OUI,24,12,12,3,9,OUI,OUI,2025-03-13 09:56:20+00:00,"48.812657470558754, 2.1921751275658607",Chaville,92022,0.5,10,48.812657470558754,2.1921751275658607,Hors Paris
35018,Ancien Canal - Hélène Brion,OUI,23,23,0,0,0,OUI,OUI,2025-03-13 09:55:51+00:00,"48.89484799296163, 2.4188338592648506",Pantin,93055,0.0,10,48.89484799296163,2.4188338592648506,Hors Paris
17007,Navier - Epinettes,OUI,36,36,0,0,0,OUI,OUI,2025-03-13 10:01:26+00:00,"48.89587780769155, 2.3226776719093327",Paris,75056,0.0,10,48.89587780769155,2.3226776719093327,17.0
19005,Flandre - Riquet,OUI,19,18,1,1,0,OUI,OUI,2025-03-13 09:56:23+00:00,"48.888013281448, 2.3737595955229",Paris,75056,0.05263157894736842,10,48.888013281448,2.3737595955229,19.0
31012,Place Carnot,OUI,23,21,2,0,2,OUI,OUI,2025-03-13 09:55:57+00:00,"48.85593932186797, 2.441531717777252",Montreuil,93048,0.08695652173913043,10,48.85593932186797,2.441531717777252,Hors Paris
17011,Fragonard - Porte de Clichy,OUI,55,21,34,29,5,OUI,OUI,2025-03-13 09:59:27+00:00,"48.894155633419, 2.3143893107772",Paris,75056,0.6181818181818182,10,48.894155633419,2.3143893107772,17.0
12024,Gare de Bercy,OUI,35,15,20,18,2,OUI,OUI,2025-03-13 09:59:22+00:00,"48.839794573906, 2.3826066032052",Paris,75056,0.5714285714285714,10,48.839794573906,2.3826066032052,12.0
17045,Place des Ternes.,OUI,44,43,1,1,0,OUI,OUI,2025-03-13 09:55:35+00:00,"48.878438631226516, 2.297727763652802",Paris,75056,0.022727272727272728,10,48.878438631226516,2.297727763652802,17.0
35019,Anatole France - Jean Lolive,OUI,27,23,4,3,1,OUI,OUI,2025-03-13 09:59:41+00:00,"48.8949922, 2.4253764",Pantin,93055,0.14814814814814814,10,48.8949922,2.4253764,Hors Paris
43402,Place de Verdun,OUI,40,18,22,20,2,OUI,OUI,2025-03-13 09:59:42+00:00,"48.8202823, 2.473775",Joinville-le-Pont,94042,0.55,10,48.8202823,2.473775,Hors Paris
20113,Piat - Parc de Belleville,OUI,21,19,2,0,2,OUI,OUI,2025-03-13 10:00:55+00:00,"48.87195626635528, 2.384981390278095",Paris,75056,0.09523809523809523,10,48.87195626635528,2.384981390278095,20.0
33018,Edouard Poisson - Victor Hugo,OUI,26,22,4,2,2,OUI,OUI,2025-03-13 09:54:09+00:00,"48.91118557052621, 2.379864752692811",Aubervilliers,93001,0.15384615384615385,10,48.91118557052621,2.379864752692811,Hors Paris
23802,Raymond Poincaré - Allée de la Marche,OUI,22,13,9,7,2,OUI,OUI,2025-03-13 09:56:56+00:00,"48.838634069623, 2.1724102640451",Garches,92033,0.4090909090909091,10,48.838634069623,2.1724102640451,Hors Paris
12013,Montgallet - Reuilly,OUI,14,6,8,3,5,OUI,OUI,2025-03-13 09:56:32+00:00,"48.844291, 2.3896481",Paris,75056,0.5714285714285714,10,48.844291,2.3896481,12.0
41604,Lagny - Joffre,OUI,30,8,22,19,3,OUI,OUI,2025-03-13 10:01:23+00:00,"48.84930687084088, 2.417949736118317",Saint-Mandé,94067,0.7333333333333333,10,48.84930687084088,2.417949736118317,Hors Paris
21305,Place Jacques Madaule,OUI,23,4,19,18,1,OUI,OUI,2025-03-13 10:01:11+00:00,"48.823933787309, 2.2606918215752",Issy-les-Moulineaux,92040,0.8260869565217391,10,48.823933787309,2.2606918215752,Hors Paris
15017,Place Falguière,OUI,22,22,0,0,0,OUI,OUI,2025-03-13 10:00:44+00:00,"48.83629973941847, 2.3104464635252953",Paris,75056,0.0,10,48.83629973941847,2.3104464635252953,15.0
11115,Montreuil - Gonnet,OUI,24,18,6,0,6,OUI,OUI,2025-03-13 10:00:56+00:00,"48.850500564921, 2.3890856287864",Paris,75056,0.25,10,48.850500564921,2.3890856287864,11.0
18005,Tardieu - Chappe,OUI,16,16,0,0,0,OUI,OUI,2025-03-13 10:00:11+00:00,"48.884146759782, 2.341845408082",Paris,75056,0.0,10,48.884146759782,2.341845408082,18.0
7015,Varenne,OUI,44,15,29,18,11,OUI,OUI,2025-03-13 10:01:07+00:00,"48.857202661803, 2.3152771219611",Paris,75056,0.6590909090909091,10,48.857202661803,2.3152771219611,7.0
10005,Petites Ecuries - Faubourg Poissonnière,OUI,17,7,10,9,1,OUI,OUI,2025-03-13 09:59:01+00:00,"48.87397217237368, 2.348388757504776",Paris,75056,0.5882352941176471,10,48.87397217237368,2.348388757504776,10.0
5021,Jussieu - Fossés Saint-Bernard,OUI,38,0,38,35,3,OUI,OUI,2025-03-13 10:00:17+00:00,"48.847185510023, 2.3534858599305",Paris,75056,1.0,10,48.847185510023,2.3534858599305,5.0
20136,Henri Chevreau - Couronnes,OUI,26,25,1,0,1,OUI,OUI,2025-03-13 09:56:34+00:00,"48.87033205312931, 2.388777695596218",Paris,75056,0.038461538461538464,10,48.87033205312931,2.388777695596218,20.0
23001,Paul Vaillant Couturier - Chaptal,OUI,36,5,31,22,9,OUI,OUI,2025-03-13 10:01:15+00:00,"48.893479576183, 2.2775253653526",Levallois-Perret,92044,0.8611111111111112,10,48.893479576183,2.2775253653526,Hors Paris
5026,Pascal - Claude Bernard,OUI,47,2,45,36,9,OUI,OUI,2025-03-13 10:01:13+00:00,"48.839061952159746, 2.3499782010912895",Paris,75056,0.9574468085106383,10,48.839061952159746,2.3499782010912895,5.0
15010,Square Cambronne,OUI,59,6,53,48,5,OUI,OUI,2025-03-13 09:57:57+00:00,"48.84756654526, 2.3025691509247",Paris,75056,0.8983050847457628,10,48.84756654526,2.3025691509247,15.0
43006,Vignerons - Minimes,OUI,29,20,9,5,4,OUI,OUI,2025-03-13 10:00:54+00:00,"48.841486, 2.430793",Vincennes,94080,0.3103448275862069,10,48.841486,2.430793,Hors Paris
18141,Clignancourt - Sofia,OUI,19,16,3,0,3,OUI,OUI,2025-03-13 10:00:08+00:00,"48.88511992309783, 2.34719488842051",Paris,75056,0.15789473684210525,10,48.88511992309783,2.34719488842051,18.0
31702,Pierre et Marie Curie - Julien Grimau,OUI,18,17,1,0,1,OUI,OUI,2025-03-13 09:54:50+00:00,"48.870714014863225, 2.424097023904324",Bagnolet,93006,0.05555555555555555,10,48.870714014863225,2.424097023904324,Hors Paris
33009,Félix Faure - Sadi Carnot,OUI,33,23,10,6,4,OUI,OUI,2025-03-13 09:57:17+00:00,"48.90812110228388, 2.378623187541962",Aubervilliers,93001,0.30303030303030304,10,48.90812110228388,2.378623187541962,Hors Paris
7004,Raspail - Varenne,OUI,17,1,16,9,7,OUI,OUI,2025-03-13 10:01:03+00:00,"48.853147816545, 2.3263905197382",Paris,75056,0.9411764705882353,10,48.853147816545,2.3263905197382,7.0
5106,Cujas - Saint-Michel,OUI,19,1,18,2,16,OUI,OUI,2025-03-13 10:01:21+00:00,"48.848191348584, 2.341831654854",Paris,75056,0.9473684210526315,10,48.848191348584,2.341831654854,5.0
42503,Vladimir Ilitch Lénine - Andrée Chedid,OUI,31,27,4,0,4,OUI,OUI,2025-03-13 09:57:47+00:00,"48.813240124373, 2.3319716067039",Gentilly,94037,0.12903225806451613,10,48.813240124373,2.3319716067039,Hors Paris
22505,Mairie de La Garenne Colombes,OUI,22,18,4,4,0,OUI,OUI,2025-03-13 09:52:31+00:00,"48.90663823468682, 2.24679596722126",La Garenne-Colombes,92035,0.18181818181818182,10,48.90663823468682,2.24679596722126,Hors Paris
21111,Professeur René Leriche - Général Leclerc,OUI,50,20,30,25,5,OUI,OUI,2025-03-13 09:58:02+00:00,"48.90782845483013, 2.307887971401215",Clichy,92024,0.6,10,48.90782845483013,2.307887971401215,Hors Paris
19115,Porte de la Villette,OUI,26,19,7,3,4,OUI,OUI,2025-03-13 10:01:22+00:00,"48.89835196548483, 2.386150136590004",Paris,75056,0.2692307692307692,10,48.89835196548483,2.386150136590004,19.0
11114,Ledru-Rollin - Charonne,OUI,31,16,15,11,4,OUI,OUI,2025-03-13 09:58:32+00:00,"48.85345855607243, 2.3772463581947094",Paris,75056,0.4838709677419355,10,48.85345855607243,2.3772463581947094,11.0
32010,Place aux Étoiles,OUI,37,7,30,7,23,OUI,OUI,2025-03-13 10:00:06+00:00,"48.91835629408464, 2.3523425683379173",Saint-Denis,93066,0.8108108108108109,10,48.91835629408464,2.3523425683379173,Hors Paris
20040,Parc de Belleville - Julien Lacroix,OUI,26,25,1,0,1,OUI,OUI,2025-03-13 09:55:27+00:00,"48.8703459, 2.3842214",Paris,75056,0.038461538461538464,10,48.8703459,2.3842214,20.0
15033,Place Violet,OUI,29,23,6,6,0,OUI,OUI,2025-03-13 09:58:42+00:00,"48.84487893836502, 2.2905756533145905",Paris,75056,0.20689655172413793,10,48.84487893836502,2.2905756533145905,15.0
10023,Gare de l'Est - Verdun,OUI,13,9,4,2,2,OUI,OUI,2025-03-13 09:57:21+00:00,"48.876156054271, 2.3609149083206",Paris,75056,0.3076923076923077,10,48.876156054271,2.3609149083206,10.0
41404,Carnot - Pâquerettes,OUI,24,2,22,20,2,OUI,OUI,2025-03-13 10:00:56+00:00,"48.79592939432515, 2.4261841177940373",Alfortville,94002,0.9166666666666666,10,48.79592939432515,2.4261841177940373,Hors Paris
13026,Place Jean Delay,OUI,33,29,4,2,2,OUI,OUI,2025-03-13 09:59:34+00:00,"48.823316, 2.354336",Paris,75056,0.12121212121212122,10,48.823316,2.354336,13.0
15122,Place Charles Vallin,OUI,26,24,2,0,2,OUI,OUI,2025-03-13 10:00:56+00:00,"48.835523812041, 2.3025986552238",Paris,75056,0.07692307692307693,10,48.835523812041,2.3025986552238,15.0
23002,Pont de Levallois-bécon,OUI,49,9,40,13,27,OUI,OUI,2025-03-13 10:01:14+00:00,"48.8984179, 2.2791311",Levallois-Perret,92044,0.8163265306122449,10,48.8984179,2.2791311,Hors Paris
42707,Place Jean-Baptiste Clément,OUI,23,22,1,0,1,OUI,OUI,2025-03-13 09:51:48+00:00,"48.81240466867336, 2.3617091774940495",Le Kremlin-Bicêtre,94043,0.043478260869565216,10,48.81240466867336,2.3617091774940495,Hors Paris
14139,Pierre Larousse - Raymond Losserand,OUI,30,29,1,0,1,OUI,OUI,2025-03-13 09:58:59+00:00,"48.83059564231877, 2.3119183257222176",Paris,75056,0.03333333333333333,10,48.83059564231877,2.3119183257222176,14.0
92003,Chanzy - Sud-Est,OUI,25,25,0,0,0,OUI,OUI,2025-03-13 09:58:21+00:00,"48.888912037698766, 2.195632159709931",Nanterre,92050,0.0,10,48.888912037698766,2.195632159709931,Hors Paris
13102,Pitié-Salpêtrière,OUI,49,10,39,20,19,OUI,OUI,2025-03-13 10:01:04+00:00,"48.83748810318667, 2.365213818848133",Paris,75056,0.7959183673469388,10,48.83748810318667,2.365213818848133,13.0
19019,Petit - Manin,OUI,22,22,0,0,0,NON,NON,2025-03-13 09:54:59+00:00,"48.886506875343, 2.3938155401308",Paris,75056,0.0,10,48.886506875343,2.3938155401308,19.0
11101,Charles Delescluze,OUI,48,18,30,23,7,OUI,OUI,2025-03-13 10:00:18+00:00,"48.85242200848887, 2.380632497370243",Paris,75056,0.625,10,48.85242200848887,2.380632497370243,11.0
8055,Courcelles - Place des Ternes,OUI,28,25,3,2,1,OUI,OUI,2025-03-13 10:01:13+00:00,"48.878199928923124, 2.2992860188665043",Paris,75056,0.10714285714285714,10,48.878199928923124,2.2992860188665043,8.0
15055,Vasco de Gama,OUI,54,20,34,26,8,OUI,OUI,2025-03-13 10:00:44+00:00,"48.83671783466264, 2.283664085650799",Paris,75056,0.6296296296296297,10,48.83671783466264,2.283664085650799,15.0
27002,Parc Pierre Lagravère,OUI,30,12,18,9,9,OUI,OUI,2025-03-13 09:59:56+00:00,"48.92650488131725, 2.239069678491417",Colombes,92025,0.6,10,48.92650488131725,2.239069678491417,Hors Paris
10015,Lucien Sampaix - Récollets,OUI,41,37,4,3,1,OUI,OUI,2025-03-13 10:00:10+00:00,"48.874330377560476, 2.3621229082345963",Paris,75056,0.0975609756097561,10,48.874330377560476,2.3621229082345963,10.0
21502,Verdun - Place Henri IV,OUI,25,5,20,14,6,OUI,OUI,2025-03-13 10:01:09+00:00,"48.870797375639214, 2.2277003154158592",Suresnes,92073,0.8,10,48.870797375639214,2.2277003154158592,Hors Paris
41207,Place du Général de Gaulle,OUI,28,13,15,1,14,OUI,OUI,2025-03-13 09:56:52+00:00,"48.8525288, 2.4877332",Fontenay-sous-Bois,94033,0.5357142857142857,10,48.8525288,2.4877332,Hors Paris
16129,Ceinture du Lac Inferieure - Saint-Cloud,OUI,41,37,4,0,4,OUI,OUI,2025-03-13 10:01:25+00:00,"48.86218070933143, 2.2617871686816216",Paris,75056,0.0975609756097561,10,48.86218070933143,2.2617871686816216,16.0
12032,Porte Dorée,OUI,35,7,28,16,12,OUI,OUI,2025-03-13 10:00:06+00:00,"48.8354337, 2.4077132",Paris,75056,0.8,10,48.8354337,2.4077132,12.0
14104,Boyer-Barret - Raymond Losserand,OUI,22,22,0,0,0,OUI,OUI,2025-03-13 10:00:52+00:00,"48.83329880233322, 2.3173383995890617",Paris,75056,0.0,10,48.83329880233322,2.3173383995890617,14.0
21032,Sèvres-Gallieni,OUI,25,3,22,16,6,OUI,OUI,2025-03-13 09:58:49+00:00,"48.837809408957, 2.2281519323587",Boulogne-Billancourt,92012,0.88,10,48.837809408957,2.2281519323587,Hors Paris
20119,Square des Saint-Simoniens,OUI,25,25,0,0,0,OUI,OUI,2025-03-13 09:56:51+00:00,"48.8701796, 2.3967273",Paris,75056,0.0,10,48.8701796,2.3967273,20.0
7005,Raspail - Bac,OUI,51,3,48,23,25,OUI,OUI,2025-03-13 09:59:42+00:00,"48.855628721101, 2.3256602883339",Paris,75056,0.9411764705882353,10,48.855628721101,2.3256602883339,7.0
31705,Champeaux - Gallieni,OUI,47,45,2,1,1,OUI,OUI,2025-03-13 09:59:03+00:00,"48.864459134684644, 2.4161778017878532",Bagnolet,93006,0.0425531914893617,10,48.864459134684644,2.4161778017878532,Hors Paris
32014,Place du Cornillon - Stade de France,OUI,33,18,15,7,8,OUI,OUI,2025-03-13 10:01:28+00:00,"48.92540695835961, 2.3644426837563515",Saint-Denis,93066,0.45454545454545453,10,48.92540695835961,2.3644426837563515,Hors Paris
6030,Assas - Vaugirard,OUI,34,14,20,10,10,OUI,OUI,2025-03-13 10:00:38+00:00,"48.848274111398, 2.3292413726449",Paris,75056,0.5882352941176471,10,48.848274111398,2.3292413726449,6.0
17124,Porte de Saint-Ouen - Henri Huchard,OUI,26,10,16,14,2,OUI,OUI,2025-03-13 09:54:22+00:00,"48.898708366365064, 2.3295360803604126",Paris,75056,0.6153846153846154,10,48.898708366365064,2.3295360803604126,18.0
12126,Gravelle - Route du Bac,OUI,51,43,8,6,2,OUI,OUI,2025-03-13 09:58:44+00:00,"48.824407, 2.418455",Paris,75056,0.1568627450980392,10,48.824407,2.418455,Hors Paris
17027,Place du Maréchal Juin - Péreire,OUI,44,20,24,19,5,OUI,OUI,2025-03-13 10:00:37+00:00,"48.885263, 2.298286",Paris,75056,0.5454545454545454,10,48.885263,2.298286,17.0
20036,Ménilmontant - Pelleport,OUI,31,31,0,0,0,OUI,OUI,2025-03-13 09:58:41+00:00,"48.870682633845, 2.3989596023316",Paris,75056,0.0,10,48.870682633845,2.3989596023316,20.0
31016,Lucie Aubrac - Franklin,OUI,35,34,1,1,0,OUI,OUI,2025-03-13 10:01:07+00:00,"48.86223916006812, 2.4435862898826604",Montreuil,93048,0.02857142857142857,10,48.86223916006812,2.4435862898826604,Hors Paris
15029,Emeriau - Place de Brazzaville,OUI,51,1,50,40,10,OUI,OUI,2025-03-13 10:00:56+00:00,"48.850785261674964, 2.2871585190296173",Paris,75056,0.9803921568627451,10,48.850785261674964,2.2871585190296173,15.0
51003,Hôtel de Ville d'Argenteuil,OUI,29,12,17,11,6,OUI,OUI,2025-03-13 10:00:35+00:00,"48.946504, 2.2496396",Argenteuil,95018,0.5862068965517241,10,48.946504,2.2496396,Hors Paris
17018,Parc Monceau,OUI,18,3,15,9,6,OUI,OUI,2025-03-13 09:55:52+00:00,"48.881077914129, 2.3095492646098",Paris,75056,0.8333333333333334,10,48.881077914129,2.3095492646098,17.0
13016,Primo Levi - Frigos,OUI,33,0,33,20,13,OUI,OUI,2025-03-13 10:01:23+00:00,"48.83094844846017, 2.37965351592796",Paris,75056,1.0,10,48.83094844846017,2.37965351592796,13.0
26001,Gare d'Asnières sur Seine,OUI,21,8,13,9,4,OUI,OUI,2025-03-13 09:59:47+00:00,"48.90636459217474, 2.2835066914558415",Asnières-sur-Seine,92004,0.6190476190476191,10,48.90636459217474,2.2835066914558415,Hors Paris
8051,Batignolles - Rome,OUI,11,9,2,2,0,OUI,OUI,2025-03-13 09:57:20+00:00,"48.881823370566806, 2.3202589899301524",Paris,75056,0.18181818181818182,10,48.881823370566806,2.3202589899301524,8.0
92004,Nanterre - Université,OUI,19,9,10,7,3,OUI,OUI,2025-03-13 09:54:05+00:00,"48.901365, 2.212693",Nanterre,92050,0.5263157894736842,10,48.901365,2.212693,Hors Paris
2009,Filles Saint-Thomas - Place de la Bourse,OUI,58,13,45,21,24,OUI,OUI,2025-03-13 09:59:38+00:00,"48.868899890853, 2.3397543845203",Paris,75056,0.7758620689655172,10,48.868899890853,2.3397543845203,2.0
18020,Francoeur - Marcadet,OUI,20,19,1,0,1,OUI,OUI,2025-03-13 10:00:25+00:00,"48.89104123261663, 2.340014585442034",Paris,75056,0.05,10,48.89104123261663,2.340014585442034,18.0
44102,Verdun - Adrien Damalix,OUI,25,14,11,10,1,OUI,OUI,2025-03-13 09:57:46+00:00,"48.8222334178559, 2.4215328320860863",Saint-Maurice,94069,0.44,10,48.8222334178559,2.4215328320860863,Hors Paris
5002,Sommerard - Saint-Jacques,OUI,34,4,30,25,5,OUI,OUI,2025-03-13 10:00:12+00:00,"48.850310432924466, 2.345015835298588",Paris,75056,0.8823529411764706,10,48.850310432924466,2.345015835298588,5.0
22001,Château - Bineau,OUI,21,1,20,8,12,OUI,OUI,2025-03-13 10:01:20+00:00,"48.890404028589806, 2.270106375217438",Neuilly-sur-Seine,92051,0.9523809523809523,10,48.890404028589806,2.270106375217438,Hors Paris
15028,Grenelle - Dr Finlay,OUI,71,11,60,54,6,OUI,OUI,2025-03-13 10:01:24+00:00,"48.851315406715976, 2.2919502854347233",Paris,75056,0.8450704225352113,10,48.851315406715976,2.2919502854347233,15.0
18025,Mairie du 18ème,OUI,40,39,1,0,1,OUI,OUI,2025-03-13 10:01:24+00:00,"48.892939296937605, 2.3445510864257812",Paris,75056,0.025,10,48.892939296937605,2.3445510864257812,18.0
8102,Lamennais - Washington,OUI,25,2,23,11,12,OUI,OUI,2025-03-13 10:00:12+00:00,"48.87352990026496, 2.303444892168045",Paris,75056,0.92,10,48.87352990026496,2.303444892168045,8.0
17122,Bridaine - Lamandé,OUI,28,27,1,1,0,OUI,OUI,2025-03-13 09:59:18+00:00,"48.8862074, 2.3206239",Paris,75056,0.03571428571428571,10,48.8862074,2.3206239,17.0
14018,Porte d'Orléans,OUI,45,44,1,0,1,OUI,OUI,2025-03-13 09:59:01+00:00,"48.8227639, 2.3249313",Paris,75056,0.022222222222222223,10,48.8227639,2.3249313,14.0
20027,Porte de Ménilmontant,OUI,15,14,1,0,1,OUI,OUI,2025-03-13 10:00:50+00:00,"48.8691543609174, 2.40932246879487",Paris,75056,0.06666666666666667,10,48.8691543609174,2.40932246879487,20.0
21013,Pierre Grenier - Pont de Billancourt,OUI,21,18,3,3,0,OUI,OUI,2025-03-13 09:51:56+00:00,"48.8258020742942, 2.2487989068031315",Boulogne-Billancourt,92012,0.14285714285714285,10,48.8258020742942,2.2487989068031315,Hors Paris
14122,Colonel Monteil - Brune,OUI,19,18,1,1,0,OUI,OUI,2025-03-13 09:55:41+00:00,"48.82650293311, 2.3092747998272",Paris,75056,0.05263157894736842,10,48.82650293311,2.3092747998272,14.0
2010,Uzès - Montmartre,OUI,26,2,24,13,11,OUI,OUI,2025-03-13 10:00:31+00:00,"48.870790980240706, 2.3431010171771054",Paris,75056,0.9230769230769231,10,48.870790980240706,2.3431010171771054,2.0
16123,Mahatma Gandhi,OUI,24,2,22,14,8,OUI,OUI,2025-03-13 09:58:04+00:00,"48.876356, 2.264205",Paris,75056,0.9166666666666666,10,48.876356,2.264205,16.0
5116,Place Valhubert,OUI,51,0,51,46,5,OUI,OUI,2025-03-13 09:59:19+00:00,"48.844182577315, 2.3640366643667",Paris,75056,1.0,10,48.844182577315,2.3640366643667,5.0
31007,Paris - Désiré Préaux,OUI,44,44,0,0,0,OUI,OUI,2025-03-13 09:58:02+00:00,"48.85742876694898, 2.4323049187660217",Montreuil,93048,0.0,10,48.85742876694898,2.4323049187660217,Hors Paris
7006,Quai Voltaire,OUI,32,3,29,27,2,OUI,OUI,2025-03-13 10:00:46+00:00,"48.858942986179, 2.3314182047146",Paris,75056,0.90625,10,48.858942986179,2.3314182047146,7.0
17046,Mac-Mahon - Brey,OUI,25,20,5,2,3,OUI,OUI,2025-03-13 09:55:27+00:00,"48.877532084130166, 2.294512536052928",Paris,75056,0.2,10,48.877532084130166,2.294512536052928,17.0
7014,Saint-François-Xavier,OUI,42,0,42,19,23,OUI,OUI,2025-03-13 10:01:02+00:00,"48.85154484769, 2.3146149516106",Paris,75056,1.0,10,48.85154484769,2.3146149516106,7.0
19038,Lassus - Delouvain,OUI,19,18,1,0,1,OUI,OUI,2025-03-13 09:57:45+00:00,"48.8755044846, 2.3890327325519",Paris,75056,0.05263157894736842,10,48.8755044846,2.3890327325519,19.0
8012,Batignolles - Place de Clichy,OUI,46,45,1,0,1,OUI,OUI,2025-03-13 10:00:10+00:00,"48.883474535757, 2.326493114233",Paris,75056,0.021739130434782608,10,48.883474535757,2.326493114233,17.0
18029,Emile Blemont - Poteau,OUI,39,37,2,1,1,OUI,OUI,2025-03-13 10:01:05+00:00,"48.8943782, 2.3415122",Paris,75056,0.05128205128205128,10,48.8943782,2.3415122,18.0
17017,Gare de Pont-Cardinet,OUI,31,27,4,1,3,OUI,OUI,2025-03-13 10:00:46+00:00,"48.88713901475306, 2.314494143994255",Paris,75056,0.12903225806451613,10,48.88713901475306,2.314494143994255,17.0
35017,Toffier Decaux - Cartier Bresson,OUI,17,13,4,1,3,OUI,OUI,2025-03-13 09:57:05+00:00,"48.90165072551549, 2.4017545580863957",Pantin,93055,0.23529411764705882,10,48.90165072551549,2.4017545580863957,Hors Paris
34002,Capitaine Glarner - Gabriel Péri,OUI,23,18,5,4,1,OUI,OUI,2025-03-13 10:01:14+00:00,"48.902449900418745, 2.3304807533425724",Saint-Ouen-sur-Seine,93070,0.21739130434782608,10,48.902449900418745,2.3304807533425724,Hors Paris
20118,Orteaux - Mouraud,OUI,24,24,0,0,0,OUI,OUI,2025-03-13 09:51:49+00:00,"48.85558642847872, 2.408762907764669",Paris,75056,0.0,10,48.85558642847872,2.408762907764669,20.0
14130,Jonquoy - Didot,OUI,30,28,2,0,2,OUI,OUI,2025-03-13 09:55:55+00:00,"48.82890454823947, 2.31648076325655",Paris,75056,0.06666666666666667,10,48.82890454823947,2.31648076325655,14.0
15035,Place Etienne Pernet,OUI,42,10,32,31,1,OUI,OUI,2025-03-13 10:00:41+00:00,"48.84243457133779, 2.2921819612383847",Paris,75056,0.7619047619047619,10,48.84243457133779,2.2921819612383847,15.0
12011,Charenton - Place du Col Bourgoin,OUI,35,23,12,12,0,OUI,OUI,2025-03-13 10:01:17+00:00,"48.844867319554, 2.3825789350545",Paris,75056,0.34285714285714286,10,48.844867319554,2.3825789350545,12.0
18049,Porte d'Aubervilliers,OUI,53,41,12,6,6,OUI,OUI,2025-03-13 10:01:23+00:00,"48.89859661942376, 2.3689722642302513",Paris,75056,0.22641509433962265,10,48.89859661942376,2.3689722642302513,18.0
21308,Bara - Henri Farman,OUI,58,1,57,35,22,OUI,OUI,2025-03-13 10:00:32+00:00,"48.833218027457846, 2.2677567601203923",Issy-les-Moulineaux,92040,0.9827586206896551,10,48.833218027457846,2.2677567601203923,Hors Paris
18113,Lepic - Armée d'Orient,OUI,24,24,0,0,0,OUI,OUI,2025-03-13 09:52:43+00:00,"48.887536403814, 2.3343077301979",Paris,75056,0.0,10,48.887536403814,2.3343077301979,18.0
19037,Belleville - Porte des Lilas,OUI,29,27,2,0,2,OUI,OUI,2025-03-13 09:53:27+00:00,"48.87660391892763, 2.404769691129476",Paris,75056,0.06896551724137931,10,48.87660391892763,2.404769691129476,20.0
35003,Gabrielle Josserand - Edouard Vaillant,OUI,23,20,3,2,1,OUI,OUI,2025-03-13 10:00:40+00:00,"48.90271566255436, 2.3933270573616032",Pantin,93055,0.13043478260869565,10,48.90271566255436,2.3933270573616032,Hors Paris
6103,Mézières - Rennes,OUI,53,46,7,4,3,OUI,OUI,2025-03-13 09:46:15+00:00,"48.85023459321703, 2.3303819820284843",Paris,75056,0.1320754716981132,10,48.85023459321703,2.3303819820284843,6.0
11006,Ledru-Rollin - Place du Père Chaillet,OUI,37,23,14,10,4,OUI,OUI,2025-03-13 10:00:13+00:00,"48.856433706943704, 2.379020587761426",Paris,75056,0.3783783783783784,10,48.856433706943704,2.379020587761426,11.0
15038,Place Adolphe Cherioux - Vaugirard,OUI,62,57,5,3,2,OUI,OUI,2025-03-13 09:59:00+00:00,"48.83959442800459, 2.3010657727718353",Paris,75056,0.08064516129032258,10,48.83959442800459,2.3010657727718353,15.0
19127,Aubervilliers - Curial,OUI,23,18,5,3,2,OUI,OUI,2025-03-13 09:59:37+00:00,"48.89088305227546, 2.3688579350709915",Paris,75056,0.21739130434782608,10,48.89088305227546,2.3688579350709915,19.0
20021,Indre - Prairies,OUI,38,38,0,0,0,OUI,OUI,2025-03-13 09:52:29+00:00,"48.86254398506782, 2.403290458023548",Paris,75056,0.0,10,48.86254398506782,2.403290458023548,20.0
1120,Lavandieres Sainte Opportune - Rivoli,OUI,22,6,16,13,3,OUI,OUI,2025-03-13 10:01:04+00:00,"48.859279702476, 2.3466217517853",Paris,75056,0.7272727272727273,10,48.859279702476,2.3466217517853,1.0
6018,Michelet - Assas,OUI,17,1,16,1,15,OUI,OUI,2025-03-13 10:01:10+00:00,"48.842741502832, 2.3350211977959",Paris,75056,0.9411764705882353,10,48.842741502832,2.3350211977959,6.0
14112,Méchain - Faubourg Saint-Jacques,OUI,15,10,5,1,4,OUI,OUI,2025-03-13 10:01:26+00:00,"48.83586772099485, 2.33798034198275",Paris,75056,0.3333333333333333,10,48.83586772099485,2.33798034198275,14.0
21019,Edouard Vaillant - Paul-Adolphe Souriau,OUI,26,0,26,17,9,OUI,OUI,2025-03-13 09:59:39+00:00,"48.834845858829, 2.2479459643364",Boulogne-Billancourt,92012,1.0,10,48.834845858829,2.2479459643364,Hors Paris
47004,Stade Auguste Delaune,OUI,21,5,16,15,1,OUI,OUI,2025-03-13 10:00:17+00:00,"48.80896378683884, 2.4345204234123234",Maisons-Alfort,94046,0.7619047619047619,10,48.80896378683884,2.4345204234123234,Hors Paris
21105,Morice - Général Leclerc,OUI,25,16,9,9,0,OUI,OUI,2025-03-13 10:01:14+00:00,"48.90245471981591, 2.3128929734230046",Clichy,92024,0.36,10,48.90245471981591,2.3128929734230046,Hors Paris
11010,Boulets - Faubourg Saint-Antoine,OUI,42,37,5,0,5,OUI,OUI,2025-03-13 09:58:27+00:00,"48.849259262115, 2.3917546141943",Paris,75056,0.11904761904761904,10,48.849259262115,2.3917546141943,11.0
19109,Tanger - Place du Maroc,OUI,19,15,4,3,1,OUI,OUI,2025-03-13 09:54:40+00:00,"48.8862524447104, 2.3689296841621403",Paris,75056,0.21052631578947367,10,48.8862524447104,2.3689296841621403,19.0
16122,Route de la Muette - Porte de Neuilly,OUI,49,44,5,4,1,OUI,OUI,2025-03-13 10:00:35+00:00,"48.8798926, 2.2587671",Paris,75056,0.10204081632653061,10,48.8798926,2.2587671,16.0
31019,Vincennes - Douy-Delcupe,OUI,37,35,2,1,1,OUI,OUI,2025-03-13 09:55:03+00:00,"48.85493692155721, 2.436049282550812",Montreuil,93048,0.05405405405405406,10,48.85493692155721,2.436049282550812,Hors Paris
15002,Maine - Antoine Bourdelle,OUI,17,15,2,1,1,OUI,OUI,2025-03-13 09:59:11+00:00,"48.84308531746595, 2.320263946784738",Paris,75056,0.11764705882352941,10,48.84308531746595,2.320263946784738,15.0
18032,Porte de Clignancourt.,OUI,55,51,4,0,4,OUI,OUI,2025-03-13 09:53:45+00:00,"48.897488, 2.343996",Paris,75056,0.07272727272727272,10,48.897488,2.343996,18.0
23007,Président Wilson - Jean Jaures,OUI,25,19,6,5,1,OUI,OUI,2025-03-13 09:58:50+00:00,"48.89034054052266, 2.2920683026313786",Levallois-Perret,92044,0.24,10,48.89034054052266,2.2920683026313786,Hors Paris
44012,Génie - Mozart,OUI,18,18,0,0,0,OUI,OUI,2025-03-13 09:50:04+00:00,"48.794902381218904, 2.3734183609485626",Vitry-sur-Seine,94081,0.0,10,48.794902381218904,2.3734183609485626,Hors Paris
16027,Mozart - Jasmin,OUI,62,60,2,2,0,OUI,OUI,2025-03-13 09:56:26+00:00,"48.85286124871689, 2.268483570651513",Paris,75056,0.03225806451612903,10,48.85286124871689,2.268483570651513,16.0
22101,Gare Routière de Saint Cloud,OUI,28,5,23,17,6,OUI,OUI,2025-03-13 10:01:02+00:00,"48.84288183896324, 2.222245037555695",Saint-Cloud,92064,0.8214285714285714,10,48.84288183896324,2.222245037555695,Hors Paris
20116,Haies - Réunion,OUI,20,20,0,0,0,OUI,OUI,2025-03-13 10:01:17+00:00,"48.85386896766491, 2.402426162238911",Paris,75056,0.0,10,48.85386896766491,2.402426162238911,20.0
13043,Dunois - Clisson,OUI,51,49,2,1,1,OUI,OUI,2025-03-13 09:57:17+00:00,"48.832294, 2.3674523",Paris,75056,0.0392156862745098,10,48.832294,2.3674523,13.0
42004,Westermeyer - Paul Vaillant-Couturier,OUI,30,1,29,25,4,OUI,OUI,2025-03-13 10:01:26+00:00,"48.819116181578764, 2.3966637253761296",Ivry-sur-Seine,94041,0.9666666666666667,10,48.819116181578764,2.3966637253761296,Hors Paris
9115,Milton - Manuel,OUI,21,20,1,1,0,OUI,OUI,2025-03-13 09:53:04+00:00,"48.878249, 2.341181",Paris,75056,0.047619047619047616,10,48.878249,2.341181,9.0
6107,Place Alphonse Deville,OUI,22,0,22,13,9,OUI,OUI,2025-03-13 10:00:46+00:00,"48.850188262662, 2.3275961726904",Paris,75056,1.0,10,48.850188262662,2.3275961726904,6.0
19039,Edouard Pailleron - Simon Bolivar,OUI,23,23,0,0,0,OUI,OUI,2025-03-13 09:58:16+00:00,"48.87979886049996, 2.374839261174202",Paris,75056,0.0,10,48.87979886049996,2.374839261174202,19.0
8019,Naples - Rome,OUI,26,23,3,0,3,OUI,OUI,2025-03-13 09:56:17+00:00,"48.879960700846226, 2.321358695626259",Paris,75056,0.11538461538461539,10,48.879960700846226,2.321358695626259,8.0
16032,Eglise d'Auteuil,OUI,20,8,12,7,5,OUI,OUI,2025-03-13 09:56:38+00:00,"48.84749841771691, 2.26848387135299",Paris,75056,0.6,10,48.84749841771691,2.26848387135299,16.0
9017,Lallier - Trudaine,OUI,28,27,1,0,1,OUI,OUI,2025-03-13 09:57:49+00:00,"48.88109246617963, 2.3408224806189537",Paris,75056,0.03571428571428571,10,48.88109246617963,2.3408224806189537,9.0
21003,Jean Jaurès - Jean Baptiste Clément,OUI,38,16,22,11,11,OUI,OUI,2025-03-13 09:55:34+00:00,"48.84576261454011, 2.2369650006294255",Boulogne-Billancourt,92012,0.5789473684210527,10,48.84576261454011,2.2369650006294255,Hors Paris
7008,Villersexel - Saint-Germain,OUI,16,2,14,10,4,OUI,OUI,2025-03-13 10:00:59+00:00,"48.858297001218, 2.3237934708595",Paris,75056,0.875,10,48.858297001218,2.3237934708595,7.0
9023,Laffitte - Italiens,OUI,31,1,30,17,13,OUI,OUI,2025-03-13 09:58:16+00:00,"48.871815737396, 2.3372015478451",Paris,75056,0.967741935483871,10,48.871815737396,2.3372015478451,9.0
16112,Chernoviz - Raynouard,OUI,37,35,2,0,2,OUI,OUI,2025-03-13 09:59:56+00:00,"48.8569864146289, 2.282173218142987",Paris,75056,0.05405405405405406,10,48.8569864146289,2.282173218142987,16.0
15108,Lourmel - Marie Skobtsov,OUI,22,18,4,2,2,OUI,OUI,2025-03-13 10:00:31+00:00,"48.844974, 2.287283",Paris,75056,0.18181818181818182,10,48.844974,2.287283,15.0
14030,Pernety - Raymond Losserand,OUI,32,31,1,0,1,OUI,OUI,2025-03-13 10:01:01+00:00,"48.834254627953, 2.317609339387",Paris,75056,0.03125,10,48.834254627953,2.317609339387,14.0
19040,Belleville - Télégraphe,OUI,40,40,0,0,0,OUI,OUI,2025-03-13 09:59:22+00:00,"48.8756045, 2.3995549",Paris,75056,0.0,10,48.8756045,2.3995549,19.0
20201,Eugène Reisz - Davout,OUI,20,19,1,0,1,OUI,OUI,2025-03-13 10:01:24+00:00,"48.85631874632638, 2.410396970808506",Paris,75056,0.05,10,48.85631874632638,2.410396970808506,20.0
17047,Courcelles - Pierre Demours,OUI,26,10,16,12,4,OUI,OUI,2025-03-13 10:00:55+00:00,"48.883769733273496, 2.29858466343129",Paris,75056,0.6153846153846154,10,48.883769733273496,2.29858466343129,17.0
4110,Neuve Saint-Pierre - Beautreillis,OUI,19,0,19,13,6,OUI,OUI,2025-03-13 10:01:11+00:00,"48.85355351439652, 2.3639122769236565",Paris,75056,1.0,10,48.85355351439652,2.3639122769236565,4.0
6016,Danton - Serpente,OUI,21,1,20,15,5,OUI,OUI,2025-03-13 10:01:02+00:00,"48.852297362582, 2.3414132371545",Paris,75056,0.9523809523809523,10,48.852297362582,2.3414132371545,6.0
6032,Sabot - Rennes,OUI,26,2,24,18,6,OUI,OUI,2025-03-13 09:57:05+00:00,"48.852575112948415, 2.331552766263485",Paris,75056,0.9230769230769231,10,48.852575112948415,2.331552766263485,6.0
41204,République - Danton,OUI,19,17,2,0,2,OUI,OUI,2025-03-13 10:00:56+00:00,"48.85249172181667, 2.462034523487091",Fontenay-sous-Bois,94033,0.10526315789473684,10,48.85249172181667,2.462034523487091,Hors Paris
17022,Pereire - Place de Wagram,OUI,45,41,4,1,3,OUI,OUI,2025-03-13 09:59:35+00:00,"48.887070607581215, 2.304111124531457",Paris,75056,0.08888888888888889,10,48.887070607581215,2.304111124531457,17.0
17121,Square des Epinettes,OUI,20,18,2,0,2,OUI,OUI,2025-03-13 09:57:14+00:00,"48.89383909781389, 2.325953990221024",Paris,75056,0.1,10,48.89383909781389,2.325953990221024,17.0
10036,Aqueduc - Villette,OUI,24,22,2,1,1,OUI,OUI,2025-03-13 09:54:02+00:00,"48.883886063895, 2.367198803315",Paris,75056,0.08333333333333333,10,48.883886063895,2.367198803315,10.0
19009,Cité des Sciences et de l'Industrie,OUI,28,22,6,1,5,OUI,OUI,2025-03-13 09:58:11+00:00,"48.89659571178903, 2.384599149227142",Paris,75056,0.21428571428571427,10,48.89659571178903,2.384599149227142,19.0
23304,Mairie de Sceaux,OUI,33,27,6,1,5,OUI,OUI,2025-03-13 09:59:15+00:00,"48.778916905132, 2.2887361764861",Sceaux,92071,0.18181818181818182,10,48.778916905132,2.2887361764861,Hors Paris
18109,Pajol - Riquet,OUI,46,45,1,0,1,OUI,OUI,2025-03-13 10:01:03+00:00,"48.88960028134536, 2.3628534749150276",Paris,75056,0.021739130434782608,10,48.88960028134536,2.3628534749150276,18.0
13103,Hôpital Pitié Salpêtrière,OUI,48,32,16,13,3,OUI,OUI,2025-03-13 09:58:40+00:00,"48.8377016, 2.3604946",Paris,75056,0.3333333333333333,10,48.8377016,2.3604946,13.0
21703,Square du Carrefour de l'Insurrection,OUI,20,16,4,1,3,OUI,OUI,2025-03-13 10:01:13+00:00,"48.820864559770676, 2.291113436222077",Vanves,92075,0.2,10,48.820864559770676,2.291113436222077,Hors Paris
12161,Diderot - Reuilly,OUI,44,7,37,35,2,OUI,OUI,2025-03-13 09:59:36+00:00,"48.847208456061, 2.3861273378134",Paris,75056,0.8409090909090909,10,48.847208456061,2.3861273378134,12.0
16021,François Ponsard - La Muette,OUI,23,22,1,0,1,OUI,OUI,2025-03-13 09:55:44+00:00,"48.8583666, 2.2744515",Paris,75056,0.043478260869565216,10,48.8583666,2.2744515,16.0
15107,Palais des Sports,OUI,21,1,20,18,2,OUI,OUI,2025-03-13 10:01:20+00:00,"48.833468517426, 2.2858720645308",Paris,75056,0.9523809523809523,10,48.833468517426,2.2858720645308,15.0
9031,Provence - Chaussée d'Antin,OUI,25,1,24,14,10,OUI,OUI,2025-03-13 10:00:31+00:00,"48.87428447542072, 2.332976511564311",Paris,75056,0.96,10,48.87428447542072,2.332976511564311,9.0
9101,Cadet - La Fayette,OUI,18,8,10,6,4,OUI,OUI,2025-03-13 09:58:27+00:00,"48.875601632672, 2.3435704037547",Paris,75056,0.5555555555555556,10,48.875601632672,2.3435704037547,9.0
9117,Bellefond - Maubeuge,OUI,28,25,3,0,3,OUI,OUI,2025-03-13 10:00:06+00:00,"48.878255397645, 2.3452642187476",Paris,75056,0.10714285714285714,10,48.878255397645,2.3452642187476,9.0
18017,Caulaincourt - Place Constantin Pecqueur,OUI,42,40,2,0,2,OUI,OUI,2025-03-13 09:59:22+00:00,"48.889677905028, 2.3381787144261",Paris,75056,0.047619047619047616,10,48.889677905028,2.3381787144261,18.0
20023,Pelleport - Belgrand,OUI,14,14,0,0,0,OUI,OUI,2025-03-13 09:57:21+00:00,"48.86500081847653, 2.403980836377493",Paris,75056,0.0,10,48.86500081847653,2.403980836377493,20.0
19041,Belleville - Pyrénées,OUI,38,37,1,1,0,OUI,OUI,2025-03-13 09:57:39+00:00,"48.8741908, 2.3860039",Paris,75056,0.02631578947368421,10,48.8741908,2.3860039,20.0
14002,Edgar Quinet - Raspail,OUI,44,35,9,3,6,OUI,OUI,2025-03-13 10:01:25+00:00,"48.83940266673835, 2.32971478253603",Paris,75056,0.20454545454545456,10,48.83940266673835,2.32971478253603,14.0
23903,Stade Gaston Bouillant,OUI,29,22,7,3,4,OUI,OUI,2025-03-13 09:59:03+00:00,"48.939958667023, 2.3279571813836",Villeneuve-la-Garenne,92078,0.2413793103448276,10,48.939958667023,2.3279571813836,Hors Paris
10020,Chabrol - d'Hauteville,OUI,11,6,5,2,3,OUI,OUI,2025-03-13 10:00:11+00:00,"48.877018388033, 2.3513179644942",Paris,75056,0.45454545454545453,10,48.877018388033,2.3513179644942,10.0
13010,Place d'Italie - Vincent Auriol,OUI,40,15,25,7,18,OUI,OUI,2025-03-13 09:58:58+00:00,"48.831481874467, 2.3567550292319",Paris,75056,0.625,10,48.831481874467,2.3567550292319,13.0
17201,Porte Maillot - Perreire,OUI,50,28,22,9,13,OUI,OUI,2025-03-13 10:00:45+00:00,"48.878021154637, 2.2842371277102",Paris,75056,0.44,10,48.878021154637,2.2842371277102,17.0
11041,Square Saint-Ambroise,OUI,39,4,35,30,5,OUI,OUI,2025-03-13 10:01:15+00:00,"48.860934, 2.375841",Paris,75056,0.8974358974358975,10,48.860934,2.375841,11.0
15059,Parc André Citroën,OUI,64,7,57,54,3,OUI,OUI,2025-03-13 10:01:18+00:00,"48.840639944296655, 2.2780618071556096",Paris,75056,0.890625,10,48.840639944296655,2.2780618071556096,15.0
31703,Sadi Carnot - François Mitterrand,OUI,26,25,1,0,1,OUI,OUI,2025-03-13 09:58:31+00:00,"48.87532687671517, 2.4241617321968083",Bagnolet,93006,0.038461538461538464,10,48.87532687671517,2.4241617321968083,Hors Paris
23403,Chateau,OUI,21,16,5,3,2,OUI,OUI,2025-03-13 09:58:40+00:00,"48.774661399959, 2.3135878035462",Bourg-la-Reine,92014,0.23809523809523808,10,48.774661399959,2.3135878035462,Hors Paris
15031,Théâtre - Lourmel,OUI,52,8,44,36,8,OUI,OUI,2025-03-13 10:00:27+00:00,"48.8482070397636, 2.2898658737540245",Paris,75056,0.8461538461538461,10,48.8482070397636,2.2898658737540245,15.0
4013,Vieille du Temple - Francs Bourgeois,OUI,28,3,25,18,7,OUI,OUI,2025-03-13 09:59:16+00:00,"48.858256413365815, 2.35821794718504",Paris,75056,0.8928571428571429,10,48.858256413365815,2.35821794718504,4.0
21014,Hameau Fleuri - Marché,OUI,20,6,14,5,9,OUI,OUI,2025-03-13 10:00:23+00:00,"48.831448892608314, 2.2412404417991643",Boulogne-Billancourt,92012,0.7,10,48.831448892608314,2.2412404417991643,Hors Paris
45001,Hôtel de Ville de Champigny sur Marne,OUI,21,1,20,9,11,OUI,OUI,2025-03-13 10:01:24+00:00,"48.813810628405, 2.5096759200096",Champigny-sur-Marne,94017,0.9523809523809523,10,48.813810628405,2.5096759200096,Hors Paris
5121,Square René Viviani - Montebello,OUI,33,3,30,30,0,OUI,OUI,2025-03-13 10:01:13+00:00,"48.851904891406, 2.3478421568871",Paris,75056,0.9090909090909091,10,48.851904891406,2.3478421568871,5.0
31023,Place François Mitterand,OUI,34,34,0,0,0,OUI,OUI,2025-03-13 09:52:02+00:00,"48.86492782016328, 2.442958317697048",Montreuil,93048,0.0,10,48.86492782016328,2.442958317697048,Hors Paris
47005,Ecole Vétérinaire,OUI,35,10,25,17,8,OUI,OUI,2025-03-13 10:01:05+00:00,"48.81488859822486, 2.4224362157778994",Maisons-Alfort,94046,0.7142857142857143,10,48.81488859822486,2.4224362157778994,Hors Paris
9118,Faubourg Poissonniere - Delta,OUI,36,34,2,1,1,OUI,OUI,2025-03-13 09:57:16+00:00,"48.882555807626765, 2.3497482016682625",Paris,75056,0.05555555555555555,10,48.882555807626765,2.3497482016682625,10.0
16015,Bassano -  Iéna,OUI,15,3,12,4,8,OUI,OUI,2025-03-13 10:01:17+00:00,"48.868144510482075, 2.296149600985935",Paris,75056,0.8,10,48.868144510482075,2.296149600985935,16.0
21024,Billancourt - Général Leclerc,OUI,22,6,16,14,2,OUI,OUI,2025-03-13 10:00:51+00:00,"48.8322649, 2.2380413",Boulogne-Billancourt,92012,0.7272727272727273,10,48.8322649,2.2380413,Hors Paris
15070,Balard - Montagne de la Fage,OUI,35,3,32,27,5,OUI,OUI,2025-03-13 10:00:50+00:00,"48.83850740333351, 2.2782871127128606",Paris,75056,0.9142857142857143,10,48.83850740333351,2.2782871127128606,15.0
2001,Greneta - Sebastopol,OUI,32,1,31,19,12,OUI,OUI,2025-03-13 09:59:51+00:00,"48.865242333228, 2.3516669869423",Paris,75056,0.96875,10,48.865242333228,2.3516669869423,2.0
9026,Jean-Baptiste Pigalle - La Bruyere,OUI,17,9,8,5,3,OUI,OUI,2025-03-13 09:58:04+00:00,"48.87939826447722, 2.333709173337285",Paris,75056,0.47058823529411764,10,48.87939826447722,2.333709173337285,9.0
20019,Place du Maquis du Vercors,OUI,30,30,0,0,0,OUI,OUI,2025-03-13 09:51:45+00:00,"48.877321579493575, 2.4083782732486725",Paris,75056,0.0,10,48.877321579493575,2.4083782732486725,20.0
21001,Transvaal - Charles de Gaulle,OUI,27,3,24,10,14,OUI,OUI,2025-03-13 10:01:25+00:00,"48.848280403628806, 2.2373420120857195",Boulogne-Billancourt,92012,0.8888888888888888,10,48.848280403628806,2.2373420120857195,Hors Paris
18137,Poissonniers - Nord,OUI,28,26,2,2,0,OUI,OUI,2025-03-13 10:00:03+00:00,"48.892511213520656, 2.3522228747606277",Paris,75056,0.07142857142857142,10,48.892511213520656,2.3522228747606277,18.0
18033,Belliard - Damrémont,OUI,34,30,4,2,2,OUI,OUI,2025-03-13 09:52:56+00:00,"48.89669238777841, 2.338023450388167",Paris,75056,0.11764705882352941,10,48.89669238777841,2.338023450388167,18.0
7101,Raspail - Chomel,OUI,49,0,49,24,25,OUI,OUI,2025-03-13 09:59:20+00:00,"48.852233164303, 2.3266580700874",Paris,75056,1.0,10,48.852233164303,2.3266580700874,7.0
21310,Kléber - Gouverneur Général Eboué,OUI,22,5,17,9,8,OUI,OUI,2025-03-13 09:56:57+00:00,"48.826885843069796, 2.2723413258790965",Issy-les-Moulineaux,92040,0.7727272727272727,10,48.826885843069796,2.2723413258790965,Hors Paris
18138,Station Paris Basketball - Ney - Charles Hermite,OUI,20,9,11,7,4,OUI,OUI,2025-03-13 10:00:35+00:00,"48.898748039775, 2.3645754531026",Paris,75056,0.55,10,48.898748039775,2.3645754531026,18.0
20016,Pyrénées - Maraîchers,OUI,32,32,0,0,0,OUI,OUI,2025-03-13 09:59:45+00:00,"48.85714001395299, 2.4043509364128113",Paris,75056,0.0,10,48.85714001395299,2.4043509364128113,20.0
7016,Surcouf - Université,OUI,55,5,50,37,13,OUI,OUI,2025-03-13 10:01:19+00:00,"48.861273016278, 2.3094535509142",Paris,75056,0.9090909090909091,10,48.861273016278,2.3094535509142,7.0
32015,Gare RER de Saint-Denis,OUI,36,26,10,7,3,OUI,OUI,2025-03-13 09:59:01+00:00,"48.93554324248177, 2.3471488058567047",Saint-Denis,93066,0.2777777777777778,10,48.93554324248177,2.3471488058567047,Hors Paris
4011,Hôtel de Ville - Pont-Marie,OUI,33,2,31,25,6,OUI,OUI,2025-03-13 10:01:00+00:00,"48.853899645527, 2.3569472506642",Paris,75056,0.9393939393939394,10,48.853899645527,2.3569472506642,4.0
10010,Place Jacques Bonsergent,OUI,33,11,22,16,6,OUI,OUI,2025-03-13 10:00:40+00:00,"48.870948218595, 2.3612049221992",Paris,75056,0.6666666666666666,10,48.870948218595,2.3612049221992,10.0
12041,Bois de Vincennes.,OUI,58,35,23,7,16,OUI,OUI,2025-03-13 10:00:05+00:00,"48.8338064, 2.4132221",Saint-Mandé,94067,0.39655172413793105,10,48.8338064,2.4132221,Hors Paris
16043,Place de Passy,OUI,11,9,2,0,2,OUI,OUI,2025-03-13 09:59:31+00:00,"48.85780291711202, 2.277500546942199",Paris,75056,0.18181818181818182,10,48.85780291711202,2.277500546942199,16.0
7013,Duroc - Place de Breteuil,OUI,46,22,24,20,4,OUI,OUI,2025-03-13 09:59:54+00:00,"48.847460641142, 2.3126140236855",Paris,75056,0.5217391304347826,10,48.847460641142,2.3126140236855,7.0
16029,Maison de Radio - France,OUI,42,2,40,40,0,OUI,OUI,2025-03-13 10:01:21+00:00,"48.85132886434057, 2.277785539627075",Paris,75056,0.9523809523809523,10,48.85132886434057,2.277785539627075,16.0
20202,Dupont de l'Eure - Gambetta,OUI,29,27,2,1,1,OUI,OUI,2025-03-13 09:54:00+00:00,"48.8679385, 2.4003649",Paris,75056,0.06896551724137931,10,48.8679385,2.4003649,20.0
18008,Square Léon,OUI,33,32,1,0,1,OUI,OUI,2025-03-13 09:57:19+00:00,"48.88667396788626, 2.353205569088459",Paris,75056,0.030303030303030304,10,48.88667396788626,2.353205569088459,18.0
18019,Square Raymond Souplex,OUI,51,50,1,0,1,OUI,OUI,2025-03-13 09:58:04+00:00,"48.89183721478911, 2.335426103165901",Paris,75056,0.0196078431372549,10,48.89183721478911,2.335426103165901,18.0
42703,Fontainebleau - Edmond Michelet,OUI,45,42,3,1,2,OUI,OUI,2025-03-13 09:59:19+00:00,"48.80956436844049, 2.3626908659935",Le Kremlin-Bicêtre,94043,0.06666666666666667,10,48.80956436844049,2.3626908659935,Hors Paris
11034,Parmentier - Fontaine au Roi,OUI,45,41,4,1,3,OUI,OUI,2025-03-13 09:56:40+00:00,"48.86787670551736, 2.372705978671471",Paris,75056,0.08888888888888889,10,48.86787670551736,2.372705978671471,11.0
